[
  {
    "id": 1,
    "no": 1,
    "type": "fisica",
    "nome": "Associação Dos Africanos Do Concelho De Vila Franca De Xira (AACVFX)",
    "identificacao": "Povos originários",
    "categoria": "associacao",
    "subCategoria": "Promoção cultural; Educação & formação;",
    "eMail": "geral.aacvfx@hotmail.com",
    "telefone": "219 520 360",
    "website": "https://associativismo.cm-vfxira.pt/index.php",
    "mediaLinks": {
      "facebook": "https://www.facebook.com/associacaodosafricanos.vfx",
      "instagram": "https://www.instagram.com/aacvfx/",
      "linkedin": "",
      "twitter": "",
      "youtube": ""
    },
    "address": {
      "street": "Rua António José da Silva",
      "number": "Torre 10 - Loja Esq",
      "city": "Vila Franca de Xira",
      "country": "Portugal",
      "postalCode": "2625-642",
      "latitude": "38.961234",
      "longitude": "-9.060987",
      "district": "Lisboa",
      "municipality": "Vila Franca de Xira",
      "parish": "Vialonga",
      "fullAddress": "Rua António José da Silva, Torre 10 - Loja Esq, 2625-642 Vialonga, Vila Franca de Xira, Lisboa, Portugal"
    },
    "img": "https://cesa.rc.iseg.ulisboa.pt/wp-content/uploads/2025/11/Associacao-Dos-Africanos-Do-Concelho-De-Vila-Franca-De-Xira-AACVFX.jpg"
  },
  {
    "id": 2,
    "no": 2,
    "type": "fisica",
    "nome": "Associação de Apoio aos Estudantes Africanos e Comunidades (AAEAC)",
    "identificacao": "Povos originários e descendentes",
    "categoria": "associacao",
    "subCategoria": "Promoção cultural; Educação & formação;",
    "eMail": "aaeac2000@hotmail.com",
    "telefone": "21 8522695",
    "website": "https://aaeacomunidades.wordpress.com/about/",
    "mediaLinks": {
      "facebook": "",
      "instagram": "",
      "linkedin": "",
      "twitter": "",
      "youtube": ""
    },
    "address": {
      "street": "Rua Azinhaga da Alagueza",
      "number": "Lote X, Cave Dt.",
      "complement": "",
      "city": "Lisboa",
      "country": "Portugal",
      "postalCode": "1800-005",
      "latitude": "38.7700",
      "longitude": "-9.1100",
      "district": "Lisboa",
      "municipality": "Lisboa",
      "parish": "Olivais",
      "fullAddress": "Rua Azinhaga da Alagueza, Lote X, Cave Dt., Olivais Velho, 1800-005 Lisboa, Portugal"
    },
    "img": "https://cesa.rc.iseg.ulisboa.pt/wp-content/uploads/2025/11/Associacao-de-Apoio-aos-Estudantes-Africanos-e-Comunidades-AAEAC.jpg"
  },
  {
    "id": 3,
    "no": 3,
    "type": "fisica",
    "nome": "Associação de Apoio à Comunidade dos Países com Língua Oficial Portuguesa (AAGA)",
    "identificacao": "Povos originários e descendentes",
    "categoria": "associacao",
    "subCategoria": "Audiovisual; Promoção cultural;",
    "eMail": "aaga.portugal@gmail.com / amixsilva@hotmail.com  ",
    "telefone": "966 234 640 / 218 068 326",
    "website": "https://www.cm-seixal.pt/associacao/associacao-de-apoio-aos-paises-de-lingua-portuguesa-aaga",
    "mediaLinks": {
      "facebook": "",
      "instagram": "",
      "linkedin": "",
      "twitter": "",
      "youtube": ""
    },
    "address": {
      "street": "Rua Quinta Nossa Senhora do Monte Sião",
      "number": "N.º 1",
      "complement": "",
      "city": "Seixal",
      "country": "Portugal",
      "postalCode": "2840-597",
      "latitude": "38.6405",
      "longitude": "-9.0978",
      "district": "Setúbal",
      "municipality": "Seixal",
      "parish": "Seixal, Arrentela e Aldeia de Paio Pires",
      "fullAddress": "Rua Quinta Nossa Senhora do Monte Sião, Nº 1, Torre da Marinha, 2840-597 Seixal, Setúbal, Portugal"
    },
    "img": "https://cesa.rc.iseg.ulisboa.pt/wp-content/uploads/2025/11/Associacao-de-Apoio-a-Comunidade-dos-Paises-com-Lingua-Oficial-Portuguesa-AAGA.jpg"
  },
  {
    "id": 4,
    "no": 4,
    "type": "fisica",
    "nome": "Associação de Filhos e Amigos da Ilha de Jeta - Nucleo de Portugal (AFAIJE)",
    "identificacao": "Descendentes",
    "categoria": "associacao",
    "subCategoria": "Teatro; Dança; Promoção cultural;",
    "eMail": "afaijeportugal@sapo.pt",
    "telefone": "214 681 330 / 968 801 863 / 965 877 774",
    "website": "https://afaijeportugal.blogs.sapo.pt/",
    "mediaLinks": {
      "facebook": "https://www.facebook.com/afaije.portugal.1",
      "instagram": "https://www.instagram.com/afaije.nucleodeportugal/",
      "linkedin": "",
      "twitter": "",
      "youtube": ""
    },
    "address": {
      "street": "R. Sacadura Cabral",
      "number": "Loja 62, Centro Comercial da Grande Galiza",
      "complement": "",
      "city": "Cascais",
      "country": "Portugal",
      "postalCode": "2765-349",
      "latitude": "38.7015",
      "longitude": "-9.4220",
      "district": "Lisboa",
      "municipality": "Cascais",
      "parish": "Cascais e Estoril",
      "fullAddress": "Centro Comercial da Grande Galiza, Loja 62, R. Sacadura Cabral 62, 2765-349 Cascais, Portugal"
    },
    "img": "https://cesa.rc.iseg.ulisboa.pt/wp-content/uploads/2025/11/Associacao-de-Filhos-e-Amigos-da-Ilha-de-Jeta-Nucleo-de-Portugal-AFAIJE.jpg"
  },
  {
    "id": 5,
    "no": 5,
    "type": "fisica",
    "nome": "Associação de Solidariadade social Alto Cova da Moura (ASSACM)",
    "identificacao": "Povos originários e descendentes",
    "categoria": "associacao",
    "subCategoria": "Música; Gastronomia; Promoção cultural;",
    "eMail": " direcao.assacm@gmail.com ",
    "telefone": "214 905 144 912 944 445",
    "website": "https://assacm.wixsite.com/assacm/about1-c1x1t",
    "mediaLinks": {
      "facebook": "https://www.facebook.com/assacm.ipss",
      "instagram": "",
      "linkedin": "",
      "twitter": "",
      "youtube": ""
    },
    "address": {
      "street": "Rua do Vale",
      "number": "17",
      "complement": "",
      "city": "Amadora",
      "country": "Portugal",
      "postalCode": "2610-232",
      "latitude": "38.7278",
      "longitude": "-9.2195",
      "district": "Lisboa",
      "municipality": "Amadora",
      "parish": "Alfragide",
      "fullAddress": "Rua do Vale 17, 2610-232 Alfragide, Amadora, Lisboa, Portugal"
    },
    "img": "https://cesa.rc.iseg.ulisboa.pt/wp-content/uploads/2025/11/Associacao-de-Solidariadade-social-Alto-Cova-da-Moura-ASSACM.jpg"
  },
  {
    "id": 6,
    "no": 6,
    "type": "fisica",
    "nome": "Associação Bué Fixe",
    "identificacao": "Descendentes",
    "categoria": "associacao",
    "subCategoria": "Educação & formação;",
    "eMail": "grupobuefixe@gmail.com",
    "telefone": "933 250 983",
    "mediaLinks": {
      "website": "http://www.associacaobuefixe.pt/",
      "facebook": "https://www.facebook.com/AssociacaoBueFixe/about/?ref=page_internal",
      "instagram": "https://www.instagram.com/associacaobuefixe/",
      "linkedin": "",
      "twitter": "",
      "youtube": "https://www.youtube.com/channel/UCAgBWFR5RHp4Ko-FeHsn6EQ"
    },
    "address": {
      "street": "Rua António Correia",
      "number": "1C - 2.º Esq.",
      "complement": "",
      "city": "Amadora",
      "country": "Portugal",
      "postalCode": "2700-067",
      "latitude": "38.7552",
      "longitude": "-9.2317",
      "district": "Lisboa",
      "municipality": "Amadora",
      "parish": "Venteira",
      "fullAddress": "Rua António Correia 1C, 2.º Esq., 2700-067 Amadora, Lisboa, Portugal"
    },
    "img": "https://cesa.rc.iseg.ulisboa.pt/wp-content/uploads/2025/11/Associacao-Bue-Fixe.jpg"
  },
  {
    "id": 7,
    "no": 7,
    "type": "fisica",
    "nome": "Associação Caboverdeana de Almada (Cretcheu)",
    "identificacao": "Sem informação",
    "categoria": "associacao",
    "subCategoria": "Promoção cultural;",
    "eMail": "cretcheu.gaiscv@gmail.com",
    "telefone": "214 022 501 / 21 156 03 18",
    "mediaLinks": {
      "website": "https://www.facebook.com/CretcheuAlmada/",
      "facebook": "https://www.facebook.com/CretcheuAlmada/",
      "instagram": "",
      "linkedin": "",
      "twitter": "",
      "youtube": ""
    },
    "address": {
      "street": "Rua Moçambique",
      "number": "Nº 1, Cave B",
      "complement": "",
      "city": "Almada",
      "country": "Portugal",
      "postalCode": "2805-207",
      "latitude": "38.6648",
      "longitude": "-9.1532",
      "district": "Setúbal",
      "municipality": "Almada",
      "parish": "Almada, Cova da Piedade, Pragal e Cacilhas",
      "fullAddress": "Rua Moçambique Nº 1, Cave B, 2805-207 Cova da Piedade, Almada, Setúbal, Portugal"
    },
    "img": "https://cesa.rc.iseg.ulisboa.pt/wp-content/uploads/2025/11/Associacao-Caboverdeana-de-Almada-Cretcheu.jpg"
  },
  {
    "id": 8,
    "no": 8,
    "type": "fisica",
    "nome": "Associação de Moradores do Bairro da Cruz Vermelha do Lumiar",
    "identificacao": "Sem informação",
    "categoria": "associacao",
    "subCategoria": "Desporto; Gastronomia; Promoção cultural; Educação & formação;",
    "eMail": "ambcvl@gmail.com  ",
    "telefone": "214 087 288 / 217 588 913",
    "website": "https://ambcvlumiar.wordpress.com/",
    "mediaLinks": {
      "facebook": "",
      "instagram": "",
      "linkedin": "",
      "twitter": "",
      "youtube": ""
    },
    "address": {
      "street": "Rua Maria Carlota",
      "number": "8, Loja A/B",
      "complement": "",
      "city": "Lisboa",
      "country": "Portugal",
      "postalCode": "1750-179",
      "latitude": "38.7698",
      "longitude": "-9.1569",
      "district": "Lisboa",
      "municipality": "Lisboa",
      "parish": "Lumiar",
      "fullAddress": "Rua Maria Carlota 8, Loja A/B, 1750-179 Lisboa, Lumiar, Portugal"
    },
    "img": "https://cesa.rc.iseg.ulisboa.pt/wp-content/uploads/2025/11/Associacao-de-Moradores-do-Bairro-da-Cruz-Vermelha-do-Lumiar.jpg"
  },
  {
    "id": 9,
    "no": 9,
    "type": "fisica",
    "nome": "Associação Luso Caboverdeana de Sintra (ACAS Sintra)",
    "identificacao": "Povos originários e descendentes",
    "categoria": "associacao",
    "subCategoria": "Audiovisual;",
    "eMail": "acas.sintra@gmail.com",
    "telefone": "+351 219 203 371 / 932 118 880",
    "website": "https://acassintra.com/",
    "mediaLinks": {
      "facebook": "https://www.facebook.com/acas.sintra",
      "instagram": "https://www.instagram.com/acas.sintra/",
      "linkedin": "",
      "twitter": "",
      "youtube": "https://www.youtube.com/channel/UCK9N9BTt1kXNnAzNIpzgr5Q"
    },
    "address": {
      "street": "Rua João XXIII",
      "number": "Bloco A, Traseiras",
      "complement": "",
      "city": "Sintra",
      "country": "Portugal",
      "postalCode": "2635-184",
      "latitude": "38.7803",
      "longitude": "-9.3409",
      "district": "Lisboa",
      "municipality": "Sintra",
      "parish": "Rio de Mouro",
      "fullAddress": "Rua João XXIII, Bloco A (Traseiras), 2635-184 Rio de Mouro, Sintra, Lisboa, Portugal"
    },
    "img": "https://cesa.rc.iseg.ulisboa.pt/wp-content/uploads/2025/11/Associacao-Luso-Caboverdeana-de-Sintra-ACAS-Sintra.jpg"
  },
  {
    "id": 10,
    "no": 10,
    "type": "fisica",
    "nome": "Associação MirAtiva",
    "identificacao": "Sem informação",
    "categoria": "associacao",
    "subCategoria": "Desporto; Promoção cultural; Educação & formação;",
    "eMail": "a.mirativa@gmail.com",
    "telefone": "965 879 645",
    "website": "https://casaldamiranet.wixsite.com/casaldamira/associao-mirativa",
    "mediaLinks": {
      "facebook": "https://www.facebook.com/AssMirAtiva/?ref=page_internal",
      "instagram": "https://www.instagram.com/a.mirativa/",
      "linkedin": "",
      "twitter": "",
      "youtube": ""
    },
    "address": {
      "street": "Casal da Mira",
      "number": "",
      "complement": "",
      "city": "Amadora",
      "country": "Portugal",
      "postalCode": "2650-435",
      "latitude": "38.7706",
      "longitude": "-9.2177",
      "district": "Lisboa",
      "municipality": "Amadora",
      "parish": "Encosta do Sol",
      "fullAddress": "Casal da Mira, 2650-435 Amadora, Lisboa, Portugal"
    },
    "img": "https://cesa.rc.iseg.ulisboa.pt/wp-content/uploads/2025/11/Associacao-MirAtiva.jpg"
  },
  {
    "id": 11,
    "no": 11,
    "type": "fisica",
    "nome": "Associação Moinho da Juventude",
    "identificacao": "Sem informação",
    "categoria": "associacao",
    "subCategoria": "Audiovisual; Música; Teatro; Dança; Desporto; Gastronomia; Promoção cultural; Educação & formação;",
    "eMail": "ir-acmj@moinhodajuventude.pt / dir-acmj@moinhodajuventude.pt",
    "telefone": "21 497 1070",
    "website": "http://moinhodajuventude.pt/?fbclid=IwAR3FFUv-_tUVsD2Ytvhow4WiOMeHRDndcYTf_BgSu8rvB4B4vnGKRzKEr6g",
    "mediaLinks": {
      "facebook": "https://www.facebook.com/pg/moinhodajuventude/about/?ref=page_internal",
      "instagram": "",
      "linkedin": "",
      "twitter": "",
      "youtube": ""
    },
    "address": {
      "street": "Rua Travessa do Outeiro",
      "number": "1",
      "complement": "",
      "city": "Amadora",
      "country": "Portugal",
      "postalCode": "2610-244",
      "latitude": "38.7286",
      "longitude": "-9.2164",
      "district": "Lisboa",
      "municipality": "Amadora",
      "parish": "Alfragide",
      "fullAddress": "Rua Travessa do Outeiro 1, Buraca, 2610-244 Amadora, Lisboa, Portugal"
    },
    "img": "https://cesa.rc.iseg.ulisboa.pt/wp-content/uploads/2025/11/Associacao-Moinho-da-Juventude.jpg"
  },
  {
    "id": 12,
    "no": 12,
    "type": "fisica",
    "nome": "Associação Moinho em Movimento",
    "identificacao": "Sem informação",
    "categoria": "associacao",
    "subCategoria": "Dança; Gastronomia; Promoção cultural; Educação & formação;",
    "eMail": " moinhoemmovimento@gmail.com",
    "telefone": "926 739 559",
    "website": "https://www.facebook.com/pg/Associa%C3%A7%C3%A3o-Moinho-Em-Movimento-1515550875365134/about/?ref=page_internal",
    "mediaLinks": {
      "facebook": "https://www.facebook.com/pg/Associa%C3%A7%C3%A3o-Moinho-Em-Movimento-1515550875365134/about/?ref=page_internal",
      "instagram": "",
      "linkedin": "",
      "twitter": "",
      "youtube": ""
    },
    "address": {
      "street": "Rua Abel Fontoura da Costa",
      "number": "",
      "complement": "",
      "city": "Oeiras",
      "country": "Portugal",
      "postalCode": "2740-211",
      "latitude": "38.7269",
      "longitude": "-9.2968",
      "district": "Lisboa",
      "municipality": "Oeiras",
      "parish": "Porto Salvo",
      "fullAddress": "Rua Abel Fontoura da Costa, 2740-211 Porto Salvo, Oeiras, Lisboa, Portugal"
    },
    "img": "https://cesa.rc.iseg.ulisboa.pt/wp-content/uploads/2025/11/Associacao-Moinho-em-Movimento.jpg"
  },
  {
    "id": 13,
    "no": 13,
    "type": "fisica",
    "nome": "Associação Olho Vivo",
    "identificacao": "Sem informação",
    "categoria": "associacao",
    "subCategoria": "Educação & formação;",
    "eMail": "olhovivo.geral@gmail.com",
    "telefone": "214 353 810 / 912344079 / 968008371",
    "website": "http://www.olho-vivo.org/",
    "mediaLinks": {
      "facebook": "https://www.facebook.com/olhovivoquelz/",
      "instagram": "https://www.instagram.com/aolhovivo/",
      "linkedin": "",
      "twitter": "",
      "youtube": "https://www.youtube.com/channel/UC6fjOwG3VKTjUfMZe3cZMCQ"
    },
    "address": {
      "street": "Avenida António Ennes",
      "number": "31, 2º Andar",
      "complement": "Centro Comercial de Queluz; junto à Estação de Queluz/Belas",
      "city": "Sintra",
      "country": "Portugal",
      "postalCode": "2745-067",
      "latitude": "38.7540",
      "longitude": "-9.2606",
      "district": "Lisboa",
      "municipality": "Sintra",
      "parish": "Queluz e Belas",
      "fullAddress": "Centro Comercial de Queluz, Avenida António Ennes 31, 2º Andar, 2745-067 Queluz, Sintra, Lisboa, Portugal"
    },
    "img": "https://cesa.rc.iseg.ulisboa.pt/wp-content/uploads/2025/11/Associacao-Olho-Vivo.jpg"
  },
  {
    "id": 14,
    "no": 14,
    "type": "fisica",
    "nome": "Associação Passa Sabi",
    "identificacao": "Povos originários e descendentes",
    "categoria": "associacao",
    "subCategoria": "Audiovisual; Gastronomia; Promoção cultural; Educação & formação;",
    "eMail": "geral@passasabi.pt",
    "telefone": "965 586 893",
    "website": "www.passasabi.pt",
    "mediaLinks": {
      "facebook": "https://www.facebook.com/AssociacaoPassaSabi/",
      "instagram": "https://www.instagram.com/associacaopassasabi/",
      "linkedin": "https://www.linkedin.com/company/associa%C3%A7%C3%A3o-passa-sabi/",
      "twitter": "",
      "youtube": "https://www.youtube.com/channel/UCZ319fQGDOr55rmZgNTrFEA/featured"
    },
    "address": {
      "street": "Rua Marciano Henriques da Silva",
      "number": "",
      "complement": "",
      "city": "Lisboa",
      "country": "Portugal",
      "postalCode": "1600-878",
      "latitude": "38.7426",
      "longitude": "-9.1523",
      "district": "Lisboa",
      "municipality": "Lisboa",
      "parish": "Avenidas Novas",
      "fullAddress": "Rua Marciano Henriques da Silva, 1600-878 Lisboa, Portugal"
    },
    "img": "https://cesa.rc.iseg.ulisboa.pt/wp-content/uploads/2025/11/Associacao-Passa-Sabi.jpg"
  },
  {
    "id": 15,
    "no": 15,
    "type": "fisica",
    "nome": "Casa Seis - Associação para o Desenvolvimento Comunitário",
    "identificacao": "Povos originários e descendentes",
    "categoria": "associacao",
    "subCategoria": "Promoção cultural; Educação & formação;",
    "eMail": "casaseis@gmail.com",
    "telefone": "Telf: 219 188 431 Telm: 965 863 828",
    "website": "http://casaseis-casa6.blogspot.pt/?fbclid=IwAR3irOHNmKOZAPHFlVahEXuwUODISTCZ-RNO7oN7fLWJvBdg_a37QsqeurY",
    "mediaLinks": {
      "facebook": "https://www.facebook.com/casaseis.centrocomunitario",
      "instagram": "https://www.instagram.com/casaseiscentrocomunitario/",
      "linkedin": "",
      "twitter": "",
      "youtube": ""
    },
    "address": {
      "street": "Rua da Fundação D. Pedro IV",
      "number": "6, Loja",
      "complement": "",
      "city": "Sintra",
      "country": "Portugal",
      "postalCode": "2735-592",
      "latitude": "38.7879",
      "longitude": "-9.3103",
      "district": "Lisboa",
      "municipality": "Sintra",
      "parish": "Cacém e São Marcos",
      "fullAddress": "Rua da Fundação D. Pedro IV 6, Loja, Mira Sintra, 2735-592 Sintra, Lisboa, Portugal"
    },
    "img": "https://cesa.rc.iseg.ulisboa.pt/wp-content/uploads/2025/11/Casa-Seis-Associacao-para-o-Desenvolvimento-Comunitario.jpg"
  },
  {
    "id": 16,
    "no": 16,
    "type": "fisica",
    "nome": "Centro Cultural Africano (CCA)",
    "identificacao": "Sem informação",
    "categoria": "musica",
    "subCategoria": "Música; Teatro; Gastronomia; Promoção cultural;",
    "eMail": "cca.setubal@gmail.com / ccafricano@yahoo.com.br",
    "telefone": "965 768 978",
    "website": "https://www.facebook.com/cca.setubal/",
    "mediaLinks": {
      "facebook": "https://www.facebook.com/cca.setubal/",
      "instagram": "",
      "linkedin": "",
      "twitter": "",
      "youtube": ""
    },
    "address": {
      "street": "Avenida da Bela Vista",
      "number": "Loja 19",
      "complement": "C 31",
      "city": "Setúbal",
      "country": "Portugal",
      "postalCode": "2910-421",
      "latitude": "38.5354",
      "longitude": "-8.8789",
      "district": "Setúbal",
      "municipality": "Setúbal",
      "parish": "São Sebastião",
      "fullAddress": "Avenida da Bela Vista, Loja 19, C 31, 2910-421 Setúbal, Portugal"
    },
    "img": "https://cesa.rc.iseg.ulisboa.pt/wp-content/uploads/2025/11/Centro-Cultural-de-Cabo-Verde.jpg"
  },
  {
    "id": 17,
    "no": 17,
    "type": "fisica",
    "nome": "Cooperativa de Desenvolvimento Social (COOPERACTIVA)",
    "identificacao": "Sem informação",
    "categoria": "cooperacao",
    "subCategoria": "Educação & formação;",
    "eMail": "cooperactiva@gmail.com",
    "telefone": "214 715 015",
    "website": "https://www.cooperactiva.info/",
    "mediaLinks": {
      "facebook": "https://www.facebook.com/cooperactiva.ca/",
      "instagram": "https://www.instagram.com/cooperactiva1/",
      "linkedin": "",
      "twitter": "",
      "youtube": "https://www.youtube.com/channel/UCmHTYvAO5cKwxJ1vU0RIGoA"
    },
    "address": {
      "street": "Rua das Minas",
      "number": "11, Loja A",
      "complement": "",
      "city": "Amadora",
      "country": "Portugal",
      "postalCode": "2610-111",
      "latitude": "38.7389",
      "longitude": "-9.2185",
      "district": "Lisboa",
      "municipality": "Amadora",
      "parish": "Alfragide",
      "fullAddress": "Rua das Minas 11, Loja A, 2610-111 Amadora, Lisboa, Portugal"
    },
    "img": "https://cesa.rc.iseg.ulisboa.pt/wp-content/uploads/2025/11/Cooperativa-de-Desenvolvimento-Social-COOPERACTIVA.jpg"
  },
  {
    "id": 18,
    "no": 18,
    "type": "fisica",
    "nome": "Associação Fundo de Apoio Social de Cabo-Verdianos em Portugal (FASCP)",
    "identificacao": "Povos originários e descendentes",
    "categoria": "associacao",
    "subCategoria": "Música; Dança;",
    "eMail": "presidente@fascp.org / secretariado@fascp.org / fascp.vice@gmail.com",
    "telefone": "966717398 / 963672937  963672937",
    "website": "http://fascp.weebly.com/",
    "mediaLinks": {
      "facebook": "",
      "instagram": "",
      "linkedin": "",
      "twitter": "",
      "youtube": ""
    },
    "address": {
      "street": "Rua Manuel de Arriaga",
      "number": "Lt-1342, 3º Dto",
      "complement": "",
      "city": "Sesimbra",
      "country": "Portugal",
      "postalCode": "2975-329",
      "latitude": "38.5441",
      "longitude": "-9.0805",
      "district": "Setúbal",
      "municipality": "Sesimbra",
      "parish": "Quinta do Conde",
      "fullAddress": "Rua Manuel de Arriaga, Lt-1342, 3º Dto, 2975-329 Quinta do Conde, Sesimbra, Portugal"
    },
    "img": "https://cesa.rc.iseg.ulisboa.pt/wp-content/uploads/2025/11/Associacao-Fundo-de-Apoio-Social-de-Cabo-Verdianos-em-Portugal-FASCP.jpg"
  },
  {
    "id": 19,
    "no": 19,
    "type": "fisica",
    "nome": "Associação de Mulheres Negras, Africanas e Afrodescendentes em Portugal (FEMAFRO)",
    "identificacao": "Povos originários e descendentes",
    "categoria": "associacao",
    "subCategoria": "Promoção cultural; Educação & formação;",
    "eMail": "femafroportugal@gmail.com",
    "telefone": "",
    "website": "https://femafro.pt/",
    "mediaLinks": {
      "facebook": "https://www.facebook.com/femafroportugal/",
      "instagram": "",
      "linkedin": "",
      "twitter": "",
      "youtube": "https://www.youtube.com/channel/UClTSUVNCq8fJCQsF5Vsx8Vg"
    },
    "address": {
      "street": "Rua Amigos de Lisboa",
      "number": "",
      "complement": "",
      "city": "Lisboa",
      "country": "Portugal",
      "postalCode": "1950-307",
      "latitude": "38.7443",
      "longitude": "-9.0997",
      "district": "Lisboa",
      "municipality": "Lisboa",
      "parish": "Marvila",
      "fullAddress": "Rua Amigos de Lisboa, 1950-307 Lisboa, Portugal"
    },
    "img": "https://cesa.rc.iseg.ulisboa.pt/wp-content/uploads/2025/11/Associacao-de-Mulheres-Negras-Africanas-e-Afrodescendentes-em-Portugal-FEMAFRO.jpg"
  },
  {
    "id": 20,
    "no": 20,
    "type": "fisica",
    "nome": "GHAM-ATHÉ - Associação dos Filhos e Amigos da Ilha das Galinhas",
    "identificacao": "Povos originários e descendentes",
    "categoria": "associacao",
    "subCategoria": "Gastronomia; Promoção cultural;",
    "eMail": "associaga@hotmail.com",
    "telefone": 963150050,
    "website": "https://www.cm-barreiro.pt/eventos/vii-festival-encontros/",
    "mediaLinks": {
      "facebook": "",
      "instagram": "",
      "linkedin": "",
      "twitter": "",
      "youtube": ""
    },
    "address": {
      "street": "Rua 4",
      "number": "",
      "complement": "Cidade Sol",
      "city": "Barreiro",
      "country": "Portugal",
      "postalCode": "2835-509",
      "latitude": "38.6524",
      "longitude": "-9.0308",
      "district": "Setúbal",
      "municipality": "Barreiro",
      "parish": "Santo António da Charneca",
      "fullAddress": "Rua 4, Cidade Sol, 2835-509 Santo António da Charneca, Barreiro, Portugal"
    },
    "img": ""
  },
  {
    "id": 21,
    "no": 21,
    "type": "fisica",
    "nome": "Girassol Solidário - Associação de Apoio aos Doentes Evacuados de Cabo Verde",
    "identificacao": "Povos originários e descendentes",
    "categoria": "associacao",
    "subCategoria": "Gastronomia; Promoção cultural;",
    "eMail": "girassolsolidario@sapo.pt / geral@girassolsolidario.pt",
    "telefone": "960 484 137",
    "website": "https://girassolsolidario.blogs.sapo.pt/25559.html",
    "mediaLinks": {
      "facebook": "https://www.facebook.com/girassol.solidario/",
      "instagram": "https://www.instagram.com/girassol.solidario/",
      "linkedin": "",
      "twitter": "",
      "youtube": "https://www.youtube.com/channel/UC54b84dOZ6Hv-ioca0O7HtQ"
    },
    "address": {
      "street": "Rua da Silva",
      "number": "1",
      "complement": "",
      "city": "Lisboa",
      "country": "Portugal",
      "postalCode": "1200-649",
      "latitude": "38.7127",
      "longitude": "-9.1464",
      "district": "Lisboa",
      "municipality": "Lisboa",
      "parish": "Misericórdia",
      "fullAddress": "Rua da Silva 1, 1200-649 Lisboa, Portugal"
    },
    "img": "https://cesa.rc.iseg.ulisboa.pt/wp-content/uploads/2025/11/Girassol-Solidario-Associacao-de-Apoio-aos-Doentes-Evacuados-de-Cabo-Verde.jpg"
  },
  {
    "id": 22,
    "no": 22,
    "type": "fisica",
    "nome": "GTO LX - Grupo Teatro do Oprimido Lisboa",
    "identificacao": "Sem informação",
    "categoria": "grupo_teatral",
    "subCategoria": "Teatro;",
    "eMail": "geral@gtolx.org / comunicacao@gtolx.org",
    "telefone": "964006715 | 968 474 613",
    "website": "https://www.gtolx.org/",
    "mediaLinks": {
      "facebook": "https://www.facebook.com/GTOLX",
      "instagram": "",
      "linkedin": "",
      "twitter": "https://twitter.com/gtolx",
      "youtube": "https://www.youtube.com/user/GTOLXtube"
    },
    "address": {
      "street": "Travessa do Corpo Santo",
      "number": "21, 2º andar",
      "complement": "",
      "city": "Lisboa",
      "country": "Portugal",
      "postalCode": "1200-131",
      "latitude": "38.7071",
      "longitude": "-9.1426",
      "district": "Lisboa",
      "municipality": "Lisboa",
      "parish": "Misericórdia",
      "fullAddress": "Travessa do Corpo Santo 21, 2º andar, 1200-131 Lisboa, Portugal"
    },
    "img": "https://cesa.rc.iseg.ulisboa.pt/wp-content/uploads/2025/11/GTO-LX-Grupo-Teatro-do-Oprimido-Lisboa.jpg"
  },
  {
    "id": 23,
    "no": 23,
    "type": "fisica",
    "nome": "Instituto da Mulher Negra em Portugal (INMUNE)",
    "identificacao": "Povos originários e descendentes",
    "categoria": "instituto",
    "subCategoria": "Promoção cultural; Educação & formação;",
    "eMail": " institutodamulhernegra.pt@gmail.com",
    "telefone": "",
    "website": "https://www.facebook.com/INMUNE.PORTUGAL/",
    "mediaLinks": {
      "facebook": "https://www.facebook.com/INMUNE.PORTUGAL/",
      "instagram": "https://www.instagram.com/inmune.pt/?hl=pt",
      "linkedin": "",
      "twitter": "",
      "youtube": "https://www.youtube.com/channel/UCcca6l70ymtcpZjitz23AbA"
    },
    "address": {
      "street": "Rua da Paz",
      "number": "58",
      "complement": "",
      "city": "Lisboa",
      "country": "Portugal",
      "postalCode": "1200-319",
      "latitude": "38.7125",
      "longitude": "-9.1479",
      "district": "Lisboa",
      "municipality": "Lisboa",
      "parish": "Misericórdia",
      "fullAddress": "Rua da Paz 58, 1200-319 Lisboa, Portugal"
    },
    "img": "https://cesa.rc.iseg.ulisboa.pt/wp-content/uploads/2025/11/Instituto-da-Mulher-Negra-em-Portugal-INMUNE.jpg"
  },
  {
    "id": 24,
    "no": 24,
    "type": "fisica",
    "nome": "Liáfrica - Liga dos Africanos e Amigos de África",
    "identificacao": "Povos originários e descendentes",
    "categoria": "liga",
    "subCategoria": "Promoção cultural; Educação & formação;",
    "eMail": "liafrica@sapo.pt / rogeritopacheco@gmail.com / mceu_aleixo@iol.pt / eduarda.ferronha@hotmail.com",
    "telefone": "919501377 / 917510698 / 927779293 / 964517795 / 965051780",
    "website": "https://www.facebook.com/ligaafricana/?locale=pt_PT",
    "mediaLinks": {
      "facebook": "https://www.facebook.com/ligaafricana/?locale=pt_PT",
      "instagram": "",
      "linkedin": "",
      "twitter": "",
      "youtube": ""
    },
    "address": {
      "street": "Rua Botelho de Vasconcelos",
      "number": "Lote 564, 1º Piso B",
      "complement": "Bairro do Condado - Chelas",
      "city": "Lisboa",
      "country": "Portugal",
      "postalCode": "1950-045",
      "latitude": "38.7509",
      "longitude": "-9.1043",
      "district": "Lisboa",
      "municipality": "Lisboa",
      "parish": "Marvila",
      "fullAddress": "Rua Botelho de Vasconcelos, Lote 564, 1º Piso B, Bairro do Condado - Chelas, 1950-045 Lisboa, Portugal"
    },
    "img": "https://cesa.rc.iseg.ulisboa.pt/wp-content/uploads/2025/11/Liafrica-Liga-dos-Africanos-e-Amigos-de-Africa.jpg"
  },
  {
    "id": 25,
    "no": 25,
    "type": "fisica",
    "nome": "Plataforma para o Desenvolvimento da Mulher Africana (Padema)",
    "identificacao": "Povos originários",
    "categoria": "centro",
    "subCategoria": "Promoção cultural; Educação & formação;",
    "eMail": "pademamulher@gmail.com",
    "telefone": "966 826 061",
    "website": "https://www.facebook.com/PademaOficial/",
    "mediaLinks": {
      "facebook": "https://www.facebook.com/PademaOficial/",
      "instagram": "",
      "linkedin": "",
      "twitter": "",
      "youtube": ""
    },
    "address": {
      "street": "Estrada do Concelho",
      "number": "31",
      "complement": "",
      "city": "Sintra",
      "country": "Portugal",
      "postalCode": "2705-572",
      "latitude": "38.8812",
      "longitude": "-9.3613",
      "district": "Lisboa",
      "municipality": "Sintra",
      "parish": "São João das Lampas e Terrugem",
      "fullAddress": "Estrada do Concelho 31, 2705-572 Terrugem, Sintra, Lisboa, Portugal"
    },
    "img": "https://cesa.rc.iseg.ulisboa.pt/wp-content/uploads/2025/11/Plataforma-para-o-Desenvolvimento-da-Mulher-Africana-Padema.jpg"
  },
  {
    "id": 26,
    "no": 26,
    "type": "fisica",
    "nome": "Pendão em Movimento - Espaço Comunitário",
    "identificacao": "Sem informação",
    "categoria": "espaco_comunitario",
    "subCategoria": "Promoção cultural; Educação & formação;",
    "eMail": "pendao.em.movimento@gmail.com",
    "telefone": "965 775 888 / 912 409 405",
    "website": "https://pendaoemmovimento.wordpress.com/?fbclid=IwAR2NTm_f9e2biC2vjGmLktT9caaWJL1G9J7bWDAzcPjCxbBLOlaSxYdv-wo",
    "mediaLinks": {
      "facebook": "https://www.facebook.com/Pendaoemovimento/",
      "instagram": "https://www.instagram.com/pendao_em_movimento/",
      "linkedin": "",
      "twitter": "https://twitter.com/pendaomovimento",
      "youtube": "https://www.youtube.com/channel/UCb0j36GBisv4deKbDHTuaWQ/featured"
    },
    "address": {
      "street": "Praceta do Miradouro",
      "number": "",
      "complement": "",
      "city": "Sintra",
      "country": "Portugal",
      "postalCode": "2745-215",
      "latitude": "38.7521",
      "longitude": "-9.2618",
      "district": "Lisboa",
      "municipality": "Sintra",
      "parish": "Queluz e Belas",
      "fullAddress": "Praceta do Miradouro, 2745-215 Queluz, Sintra, Lisboa, Portugal"
    },
    "img": "https://cesa.rc.iseg.ulisboa.pt/wp-content/uploads/2025/11/Pendao-em-Movimento-Espaco-Comunitario.jpg"
  },
  {
    "id": 27,
    "no": 27,
    "type": "fisica",
    "nome": "Pombal XXI - Associação dos Moradores Bairros Pombal / Bento Jesus Caraça",
    "identificacao": "Sem informação",
    "categoria": "associacao",
    "subCategoria": "Promoção cultural; Educação & formação;",
    "eMail": "pombalxxi@sapo.pt / geralpombal21@gmail.com",
    "telefone": "936 363 212 / 912 210 993",
    "website": "https://www.facebook.com/pages/category/Community/Pombal-XXI-Associa%C3%A7%C3%A3o-dos-Moradores-Bairros-Pombal-Bento-Jesus-Cara%C3%A7a-180096185377617/",
    "mediaLinks": {
      "facebook": "https://www.facebook.com/pages/category/Community/Pombal-XXI-Associa%C3%A7%C3%A3o-dos-Moradores-Bairros-Pombal-Bento-Jesus-Cara%C3%A7a-180096185377617/",
      "instagram": "",
      "linkedin": "",
      "twitter": "",
      "youtube": ""
    },
    "address": {
      "street": "Largo Francisco Lucas Pires",
      "number": "9, 3º direito",
      "complement": "",
      "city": "Oeiras",
      "country": "Portugal",
      "postalCode": "2780-158",
      "latitude": "38.7164",
      "longitude": "-9.2961",
      "district": "Lisboa",
      "municipality": "Oeiras",
      "parish": "Oeiras e São Julião da Barra, Paço de Arcos e Caxias",
      "fullAddress": "Largo Francisco Lucas Pires 9, 3º direito, 2780-158 Oeiras, Portugal"
    },
    "img": "https://cesa.rc.iseg.ulisboa.pt/wp-content/uploads/2025/11/Pombal-XXI-Associacao-dos-Moradores-Bairros-Pombal-Bento-Jesus-Caraca.jpg"
  },
  {
    "id": 28,
    "no": 28,
    "type": "fisica",
    "nome": "Associação de Promotores de Saúde, Ambiente e Desenvolvimento Sócio-Cultural (PROSAUDESC)",
    "identificacao": "Povos originários e descendentes",
    "categoria": "associacao",
    "subCategoria": "Promoção cultural; Educação & formação;",
    "eMail": "prosaudesc@hotmail.com / prosaudesc@gmail.com / daramo.projecto@gmail.com ",
    "telefone": "935 459 365 / 309900247 / 214074867 / 219410359",
    "website": "http://www.prosaudesc.pt/Portoguese/index.html",
    "mediaLinks": {
      "facebook": "https://www.facebook.com/associacaoprosaudesc",
      "instagram": "https://www.instagram.com/prosaudesc/",
      "linkedin": "",
      "twitter": "https://twitter.com/prosaudesc",
      "youtube": ""
    },
    "address": {
      "street": "Rua Arnaldo Assis Pacheco",
      "number": "Lote 1A, Zona B",
      "complement": "",
      "city": "Lisboa",
      "country": "Portugal",
      "postalCode": "1750-395",
      "latitude": "38.7798",
      "longitude": "-9.1477",
      "district": "Lisboa",
      "municipality": "Lisboa",
      "parish": "Santa Clara",
      "fullAddress": "Rua Arnaldo Assis Pacheco, Lote 1A, Zona B, 1750-395 Ameixoeira, Lisboa, Portugal"
    },
    "img": ""
  },
  {
    "id": 29,
    "no": 29,
    "type": "fisica",
    "nome": "Associação Cultural e Juvenil Batoto Yetu Portugal (BYP)",
    "identificacao": "Descendentes",
    "categoria": "associacao",
    "subCategoria": "Música; Teatro; Dança; Gastronomia; Promoção cultural; Educação & formação;",
    "eMail": "batotoyetu@gmail.com",
    "telefone": "214 460 729 / 210 145 023",
    "website": "https://batotoyetu.pt/pt/",
    "mediaLinks": {
      "facebook": "https://www.facebook.com/associacaobatotoyetu.portugal/",
      "instagram": "https://www.instagram.com/batotoyetuportugal/",
      "linkedin": "",
      "twitter": "https://twitter.com/BatotoYetuPT",
      "youtube": ""
    },
    "address": {
      "street": "Rua António Gedeão",
      "number": "Lote B3",
      "complement": "",
      "city": "Lisboa",
      "country": "Portugal",
      "postalCode": "1950-151",
      "latitude": "38.7501",
      "longitude": "-9.1068",
      "district": "Lisboa",
      "municipality": "Lisboa",
      "parish": "Marvila",
      "fullAddress": "Rua António Gedeão, Lote B3, 1950-151 Lisboa, Portugal"
    },
    "img": "https://cesa.rc.iseg.ulisboa.pt/wp-content/uploads/2025/11/Associacao-Cultural-e-Juvenil-Batoto-Yetu-Portugal-BYP.jpg"
  },
  {
    "id": 30,
    "no": 30,
    "type": "fisica",
    "nome": "Associação Cavaleiros de São Brás",
    "identificacao": "Sem informação",
    "categoria": "associacao",
    "subCategoria": "Dança; Gastronomia; Promoção cultural; Educação & formação;",
    "eMail": "associacaocavaleirosdesaobras@gmail.com / bobaeduca@gmail.com",
    "telefone": "",
    "website": "https://www.facebook.com/cavaleirossaobras/",
    "mediaLinks": {
      "facebook": "https://www.facebook.com/cavaleirossaobras/",
      "instagram": "https://www.instagram.com/cavaleirosdesaobras/",
      "linkedin": "",
      "twitter": "",
      "youtube": ""
    },
    "address": {
      "street": "Rua Jacinto Baptista",
      "number": "4B",
      "complement": "Casal de São Brás",
      "city": "Amadora",
      "country": "Portugal",
      "postalCode": "2700-792",
      "latitude": "38.7570",
      "longitude": "-9.2183",
      "district": "Lisboa",
      "municipality": "Amadora",
      "parish": "São Brás",
      "fullAddress": "Rua Jacinto Baptista 4B, Casal de São Brás, 2700-792 Amadora, Lisboa, Portugal"
    },
    "img": "https://cesa.rc.iseg.ulisboa.pt/wp-content/uploads/2025/11/Associacao-Cavaleiros-de-Sao-Bras.jpg"
  },
  {
    "id": 31,
    "no": 31,
    "type": "fisica",
    "nome": "Grupo EducAR – Plataforma de Educadores Antirracistas",
    "identificacao": "Povos originários e descendentes",
    "categoria": "grupo",
    "subCategoria": "Promoção cultural; Educação & formação;",
    "eMail": "grpeducar@gmail.com",
    "telefone": "913050053 (Danilo)",
    "website": "https://grpeducar.wordpress.com/",
    "mediaLinks": {
      "facebook": "https://www.facebook.com/grpeducar/",
      "instagram": "https://www.instagram.com/grp.educar/",
      "linkedin": "",
      "twitter": "",
      "youtube": "https://www.youtube.com/channel/UCnG0Z3s0mgU45W6L5KHqdeA"
    },
    "address": {
      "street": "Rua Bulhão Pato",
      "number": "1B",
      "complement": "Teatro Maria Matos",
      "city": "Lisboa",
      "country": "Portugal",
      "postalCode": "1700-081",
      "latitude": "38.7459",
      "longitude": "-9.1358",
      "district": "Lisboa",
      "municipality": "Lisboa",
      "parish": "Alvalade",
      "fullAddress": "Teatro Maria Matos, Rua Bulhão Pato 1B, 1700-081 Lisboa, Portugal"
    },
    "img": "https://cesa.rc.iseg.ulisboa.pt/wp-content/uploads/2025/11/Grupo-EducAR-–-Plataforma-de-Educadores-Antirracistas.jpg"
  },
  {
    "id": 32,
    "no": 32,
    "type": "fisica",
    "nome": "Rede Afrolink - Comunidade de Profissionais Africanos e Afrodescendentes",
    "identificacao": "Povos originários e descendentes",
    "categoria": "rede",
    "subCategoria": "Audiovisual; Música; Promoção cultural; Educação & formação;",
    "eMail": "geral@afrolink.pt",
    "telefone": "",
    "website": "https://afrolink.pt/",
    "mediaLinks": {
      "facebook": "https://www.facebook.com/afrolink.pt",
      "instagram": "https://www.instagram.com/afrolink.pt/",
      "linkedin": "https://www.linkedin.com/company/afrolink/about/",
      "twitter": "",
      "youtube": ""
    },
    "address": {
      "street": "Rua Virgínia Quaresma",
      "number": "",
      "complement": "",
      "city": "Lisboa",
      "country": "Portugal",
      "postalCode": "1400-361",
      "latitude": "38.6992",
      "longitude": "-9.2108",
      "district": "Lisboa",
      "municipality": "Lisboa",
      "parish": "Belém",
      "fullAddress": "Rua Virgínia Quaresma, 1400-361 Belém, Lisboa, Portugal"
    },
    "img": "https://cesa.rc.iseg.ulisboa.pt/wp-content/uploads/2025/11/Rede-Afrolink-Comunidade-de-Profissionais-Africanos-e-Afrodescendentes.jpg"
  },
  {
    "id": 33,
    "no": 33,
    "type": "fisica",
    "nome": "Teatro GRIOT",
    "identificacao": "Povos originários e descendentes",
    "categoria": "grupo_teatral",
    "subCategoria": "Teatro;",
    "eMail": "teatrogriot.producao@gmail.com",
    "telefone": "933 067 810",
    "website": "https://www.teatrogriot.com/",
    "mediaLinks": {
      "facebook": "https://www.facebook.com/TeatroGRIOT/",
      "instagram": "https://www.instagram.com/teatro_griot/",
      "linkedin": "",
      "twitter": "",
      "youtube": "https://www.youtube.com/channel/UCfd2CIXh2nAsFDHKE4kAD3w"
    },
    "address": {
      "street": "Rua das Gaivotas",
      "number": "8, sala F",
      "complement": "Polo Cultural Gaivotas Boavista",
      "city": "Lisboa",
      "country": "Portugal",
      "postalCode": "1200-202",
      "latitude": "38.7121",
      "longitude": "-9.1494",
      "district": "Lisboa",
      "municipality": "Lisboa",
      "parish": "Misericórdia",
      "fullAddress": "Polo Cultural Gaivotas Boavista, Rua das Gaivotas 8, sala F, 1200-202 Lisboa, Portugal"
    },
    "img": "https://cesa.rc.iseg.ulisboa.pt/wp-content/uploads/2025/11/Teatro-GRIOT.jpg"
  },
  {
    "id": 34,
    "no": 34,
    "type": "fisica",
    "nome": "Associação Torre Amiga",
    "identificacao": "Povos originários",
    "categoria": "associacao",
    "subCategoria": "Desporto;",
    "eMail": "associacaotorreamiga@gmail.com",
    "telefone": 963111930,
    "website": "atorreamiga.weebly.com",
    "mediaLinks": {
      "facebook": "https://www.facebook.com/torreamiga/",
      "instagram": "https://www.instagram.com/torreamiga.comunidade/",
      "linkedin": "",
      "twitter": "",
      "youtube": "https://www.youtube.com/channel/UC4lQHVH5NjZyTp8aVDzmKiA"
    },
    "address": {
      "street": "Bairro da Torre",
      "number": "8",
      "complement": "",
      "city": "Loures",
      "country": "Portugal",
      "postalCode": "2680-093",
      "latitude": "38.7932",
      "longitude": "-9.1305",
      "district": "Lisboa",
      "municipality": "Loures",
      "parish": "Camarate, Unhos e Apelação",
      "fullAddress": "Bairro da Torre 8, 2680-093 Camarate, Loures, Lisboa, Portugal"
    },
    "img": "https://cesa.rc.iseg.ulisboa.pt/wp-content/uploads/2025/11/Associacao-Torre-Amiga.jpg"
  },
  {
    "id": 35,
    "no": 35,
    "type": "fisica",
    "nome": "União Negra das Artes",
    "identificacao": "Descendentes",
    "categoria": "uniao",
    "subCategoria": "Promoção cultural;",
    "eMail": "geral@uniaonegradasartes.pt / comunicacao@uniaonegradasartes.pt",
    "telefone": "",
    "website": "https://uniaonegradasartes.pt/",
    "mediaLinks": {
      "facebook": "https://www.facebook.com/UNI%C3%83O-NEGRA-DAS-ARTES-102117198824965",
      "instagram": "https://www.instagram.com/uniaonegradasartes/",
      "linkedin": "",
      "twitter": "",
      "youtube": "https://www.youtube.com/channel/UCyYoawQIx90_gktHvkUGscA"
    },
    "address": {
      "street": "Rua Augusto José Vieira",
      "number": "19, 1º",
      "complement": "",
      "city": "Lisboa",
      "country": "Portugal",
      "postalCode": "1170-031",
      "latitude": "38.7264",
      "longitude": "-9.1320",
      "district": "Lisboa",
      "municipality": "Lisboa",
      "parish": "Arroios",
      "fullAddress": "Rua Augusto José Vieira 19, 1º, 1170-031 Lisboa, Portugal"
    },
    "img": "https://cesa.rc.iseg.ulisboa.pt/wp-content/uploads/2025/11/Uniao-Negra-das-Artes.jpg"
  },
  {
    "id": 36,
    "no": 36,
    "type": "fisica",
    "nome": "Associação Juvenil Nasce e Renasce",
    "identificacao": "Descendentes",
    "categoria": "associacao",
    "subCategoria": "Gastronomia; Promoção cultural; Educação & formação;",
    "eMail": "nasce.renasce@gmail.com",
    "telefone": "",
    "website": "https://nascerenasceblog.wordpress.com/",
    "mediaLinks": {
      "facebook": "https://www.facebook.com/Nasce-e-Renasce-Associa%C3%A7%C3%A3o-Juvenil-216586628367143/?ref=page_internal",
      "instagram": "",
      "linkedin": "",
      "twitter": "",
      "youtube": ""
    },
    "address": {
      "street": "Rua Mário Viegas",
      "number": "",
      "complement": "Casal de São Brás",
      "city": "Amadora",
      "country": "Portugal",
      "postalCode": "2610-248",
      "latitude": "38.7555",
      "longitude": "-9.2209",
      "district": "Lisboa",
      "municipality": "Amadora",
      "parish": "São Brás",
      "fullAddress": "Rua Mário Viegas, Casal de São Brás, 2610-248 Amadora, Lisboa, Portugal"
    },
    "img": "https://cesa.rc.iseg.ulisboa.pt/wp-content/uploads/2025/11/Associacao-Juvenil-Nasce-e-Renasce.jpg"
  },
  {
    "id": 37,
    "no": 37,
    "type": "fisica",
    "nome": "SOS Racismo - Associação",
    "identificacao": "Povos originários e descendentes",
    "categoria": "associacao",
    "subCategoria": "Audiovisual; Promoção cultural; Educação & formação;",
    "eMail": "sosracismo@gmail.com",
    "telefone": "",
    "website": "https://www.sosracismo.pt/",
    "mediaLinks": {
      "facebook": "https://www.facebook.com/sos.rac/",
      "instagram": "https://www.instagram.com/sosracismopt/",
      "linkedin": "",
      "twitter": "https://twitter.com/sosracismo",
      "youtube": "https://www.youtube.com/user/sosracismooficial"
    },
    "address": {
      "street": "Rua Dom Luís de Noronha",
      "number": "17, 1º Esq.",
      "complement": "Zona da Fundação Gulbenkian",
      "city": "Lisboa",
      "country": "Portugal",
      "postalCode": "1050-071",
      "latitude": "38.7368",
      "longitude": "-9.1509",
      "district": "Lisboa",
      "municipality": "Lisboa",
      "parish": "Avenidas Novas",
      "fullAddress": "Rua Dom Luís de Noronha 17, 1º Esq., 1050-071 Lisboa, Portugal"
    },
    "img": "https://cesa.rc.iseg.ulisboa.pt/wp-content/uploads/2025/11/SOS-Racismo-Associacao.jpg"
  },
  {
    "id": 38,
    "no": 38,
    "type": "fisica",
    "nome": "Bazofo & Dentu Zona",
    "identificacao": "Povos originários e descendentes",
    "categoria": "centro",
    "subCategoria": "Audiovisual; Promoção cultural; Educação & formação;",
    "eMail": "INFO@BAZOFO.COM",
    "telefone": "968 857 400",
    "website": "https://www.bazofo.com/pt/",
    "mediaLinks": {
      "facebook": "https://www.facebook.com/bazofo",
      "instagram": "https://www.instagram.com/bazofo_dentuzona/",
      "linkedin": "",
      "twitter": "",
      "youtube": ""
    },
    "address": {
      "street": "Rua 8 de Dezembro",
      "number": "",
      "complement": "Cova da Moura",
      "city": "Amadora",
      "country": "Portugal",
      "postalCode": "2600-640",
      "latitude": "38.7316",
      "longitude": "-9.2198",
      "district": "Lisboa",
      "municipality": "Amadora",
      "parish": "Águas Livres",
      "fullAddress": "Rua 8 de Dezembro, Cova da Moura, 2600-640 Amadora, Lisboa, Portugal"
    },
    "img": "https://cesa.rc.iseg.ulisboa.pt/wp-content/uploads/2025/11/Bazofo-Dentu-Zona.jpg"
  },
  {
    "id": 39,
    "no": 39,
    "type": "fisica",
    "nome": "Môn Zuntú - Associação de Promoção da Comunidade Santomense",
    "identificacao": "",
    "categoria": "associacao",
    "subCategoria": "Música; Promoção cultural; Educação & formação;",
    "eMail": "associacaomonzuntu@gmail.com",
    "telefone": "96 273 21 16 | 92 648 26 28",
    "website": "https://www.cm-almada.pt/intervencao-social/solidariedade-e-inclusao/migrantes",
    "mediaLinks": {
      "facebook": "",
      "instagram": "https://www.instagram.com/monzuntu/",
      "linkedin": "",
      "twitter": "",
      "youtube": "https://www.youtube.com/channel/UCD9KjHvFWATJAbk_OUAOVpg"
    },
    "address": {
      "street": "Largo Filinto Elísio",
      "number": "13, 6ºC",
      "complement": "Cova da Piedade",
      "city": "Almada",
      "country": "Portugal",
      "postalCode": "2805-145",
      "latitude": "38.6705",
      "longitude": "-9.1594",
      "district": "Setúbal",
      "municipality": "Almada",
      "parish": "Almada, Cova da Piedade, Pragal e Cacilhas",
      "fullAddress": "Largo Filinto Elísio 13, 6ºC, Cova da Piedade, 2805-145 Almada, Portugal"
    },
    "img": "https://cesa.rc.iseg.ulisboa.pt/wp-content/uploads/2025/11/Mon-Zuntu-Associacao-de-Promocao-da-Comunidade-Santomense.jpg"
  },
  {
    "id": 40,
    "no": 40,
    "type": "fisica",
    "nome": "Batukadeiras Bandeirinhas Da Boba",
    "identificacao": "Povos originários",
    "categoria": "musica",
    "subCategoria": "Música; Dança;",
    "eMail": "",
    "telefone": "",
    "website": "https://www.facebook.com/Batukadeiras-Bandeirinhas-Da-Boba-112020316903371/",
    "mediaLinks": {
      "facebook": "https://www.facebook.com/Batukadeiras-Bandeirinhas-Da-Boba-112020316903371/",
      "instagram": "https://www.instagram.com/bandeirinhadaboba/?utm_medium=copy_link",
      "linkedin": "",
      "twitter": "",
      "youtube": "https://www.youtube.com/channel/UCqvG_2xcND8DxxS19ypsASg"
    },
    "address": {
      "street": "Casal de São Brás",
      "number": "",
      "complement": "",
      "city": "Amadora",
      "country": "Portugal",
      "postalCode": "2610-109",
      "latitude": "38.7578",
      "longitude": "-9.2174",
      "district": "Lisboa",
      "municipality": "Amadora",
      "parish": "Mina de Água",
      "fullAddress": "Casal de São Brás, 2610-109 Amadora, Lisboa, Portugal"
    },
    "img": "https://cesa.rc.iseg.ulisboa.pt/wp-content/uploads/2025/11/Batukadeiras-Bandeirinhas-Da-Boba.jpg"
  },
  {
    "id": 41,
    "no": 41,
    "type": "fisica",
    "nome": "Associação para a Cooperação Internacional com África (Acácia)",
    "identificacao": "Povos originários e descendentes",
    "categoria": "associacao",
    "subCategoria": "Educação & formação;",
    "eMail": "acacia.associacao@gmail.com ",
    "telefone": "969057039 | 935933459 ",
    "website": "http://acacia-associacao.blogspot.com/",
    "mediaLinks": {
      "facebook": "https://m.facebook.com/Ac%C3%A1cia-Associa%C3%A7%C3%A3o-para-a-Coopera%C3%A7%C3%A3o-Internacional-com-%C3%81frica-208863575819106/",
      "instagram": "",
      "linkedin": "",
      "twitter": "",
      "youtube": ""
    },
    "address": {
      "street": "Travessa do Robalo",
      "number": "22A",
      "complement": "Torre",
      "city": "Cascais",
      "country": "Portugal",
      "postalCode": "2750-204",
      "latitude": "38.7239",
      "longitude": "-9.4058",
      "district": "Lisboa",
      "municipality": "Cascais",
      "parish": "Cascais e Estoril",
      "fullAddress": "Travessa do Robalo 22A, Torre, 2750-204 Cascais, Portugal"
    },
    "img": "https://cesa.rc.iseg.ulisboa.pt/wp-content/uploads/2025/11/Associacao-para-a-Cooperacao-Internacional-com-Africa-Acacia.jpg"
  },
  {
    "id": 42,
    "no": 42,
    "type": "fisica",
    "nome": "Solidariedade Imigrante, Associação para Defesa dos Direitos dos Imigrantes (SOLIM)",
    "identificacao": "Sem informação",
    "categoria": "associacao",
    "subCategoria": "Promoção cultural; Educação & formação;",
    "eMail": "",
    "telefone": "",
    "website": "http://www.solimigrante.org/ ",
    "mediaLinks": {
      "facebook": "https://www.facebook.com/solidariedade.imigrante",
      "instagram": "",
      "linkedin": "",
      "twitter": "",
      "youtube": "https://www.youtube.com/user/solimigrante/featured"
    },
    "address": {
      "street": "Rua dos Bacalhoeiros",
      "number": "4, 1º Andar",
      "complement": "",
      "city": "Lisboa",
      "country": "Portugal",
      "postalCode": "1100-070",
      "latitude": "38.7086",
      "longitude": "-9.1336",
      "district": "Lisboa",
      "municipality": "Lisboa",
      "parish": "Santa Maria Maior",
      "fullAddress": "Rua dos Bacalhoeiros 4, 1º Andar, 1100-070 Lisboa, Portugal"
    },
    "img": "https://cesa.rc.iseg.ulisboa.pt/wp-content/uploads/2025/11/Solidariedade-Imigrante-Associacao-para-Defesa-dos-Direitos-dos-Imigrantes-SOLIM.png.jpg"
  },
  {
    "id": 43,
    "no": 43,
    "type": "fisica",
    "nome": "ASSOCIAÇÃO PARA A COOPERAÇÃO ENTRE OS POVOS (ACEP)",
    "identificacao": "Sem informação",
    "categoria": "associacao",
    "subCategoria": "Educação & formação;",
    "eMail": "acep@acep.pt / info@acep.pt",
    "telefone": "T: +351 21 79 50 175 F: +351 21 79 50 176",
    "website": "www.acep.pt",
    "mediaLinks": {
      "facebook": "https://www.facebook.com/ACEP.ONGD",
      "instagram": "",
      "linkedin": "https://www.linkedin.com/company/acep-associa%C3%A7%C3%A3o-para-a-coopera%C3%A7%C3%A3o-entre-os-povos/",
      "twitter": "https://twitter.com/acep_ongd",
      "youtube": ""
    },
    "address": {
      "street": "Avenida Santos Dumont",
      "number": "57",
      "complement": "",
      "city": "Lisboa",
      "country": "Portugal",
      "postalCode": "1050-202",
      "latitude": "38.7363",
      "longitude": "-9.1417",
      "district": "Lisboa",
      "municipality": "Lisboa",
      "parish": "Avenidas Novas",
      "fullAddress": "Avenida Santos Dumont 57, 1050-202 Lisboa, Portugal"
    },
    "img": "https://cesa.rc.iseg.ulisboa.pt/wp-content/uploads/2025/11/ASSOCIACAO-PARA-A-COOPERACAO-ENTRE-OS-POVOS-ACEP.jpg"
  },
  {
    "id": 44,
    "no": 44,
    "type": "fisica",
    "nome": "Associação Desportiva da Amadora",
    "identificacao": "Sem informação",
    "categoria": "associacao",
    "subCategoria": "Desporto;",
    "eMail": " assdespamadora.geral@gmail.com",
    "telefone": "935 117 506",
    "website": "https://www.facebook.com/AssociacaoDesportivaAmadora",
    "mediaLinks": {
      "facebook": "https://www.facebook.com/AssociacaoDesportivaAmadora",
      "instagram": "https://www.instagram.com/associacao_desportiva_amadora/",
      "linkedin": "",
      "twitter": "",
      "youtube": "https://www.youtube.com/channel/UCOKnafpU1Trao1O-c7kDkNA"
    },
    "address": {
      "street": "Praceta Padre Álvaro Proença",
      "number": "10, 2º Dto.",
      "complement": "",
      "city": "Amadora",
      "country": "Portugal",
      "postalCode": "2700-631",
      "latitude": "38.7559",
      "longitude": "-9.2281",
      "district": "Lisboa",
      "municipality": "Amadora",
      "parish": "Mina de Água",
      "fullAddress": "Praceta Padre Álvaro Proença 10, 2º Dto., 2700-631 Amadora, Lisboa, Portugal"
    },
    "img": "https://cesa.rc.iseg.ulisboa.pt/wp-content/uploads/2025/11/Associacao-Desportiva-da-Amadora.jpg"
  },
  {
    "id": 45,
    "no": 45,
    "type": "fisica",
    "nome": "Associação The One Zion",
    "identificacao": "Sem informação",
    "categoria": "associacao",
    "subCategoria": "Educação & formação;",
    "eMail": "",
    "telefone": "960150964 / 939441083",
    "website": "https://www.facebook.com/Associa%C3%A7%C3%A3o-The-One-Zion-111933211374352",
    "mediaLinks": {
      "facebook": "https://www.facebook.com/Associa%C3%A7%C3%A3o-The-One-Zion-111933211374352",
      "instagram": "https://www.instagram.com/associacao.theonezion/",
      "linkedin": "",
      "twitter": "",
      "youtube": ""
    },
    "address": {
      "street": "Rua dos Moinhos",
      "number": "23A",
      "complement": "Pendão",
      "city": "Sintra",
      "country": "Portugal",
      "postalCode": "2745-108",
      "latitude": "38.7514",
      "longitude": "-9.2597",
      "district": "Lisboa",
      "municipality": "Sintra",
      "parish": "Queluz e Belas",
      "fullAddress": "Rua dos Moinhos 23A, Pendão, 2745-108 Queluz, Sintra, Lisboa, Portugal"
    },
    "img": "https://cesa.rc.iseg.ulisboa.pt/wp-content/uploads/2025/11/Associacao-The-One-Zion.jpg"
  },
  {
    "id": 46,
    "no": 46,
    "type": "fisica",
    "nome": "CAZAmbujal Associação Recreativa",
    "identificacao": "Sem informação",
    "categoria": "associacao",
    "subCategoria": "Audiovisual; Dança; Desporto; Educação & formação;",
    "eMail": "cazambujal.ar@gmail.com",
    "telefone": "",
    "website": "https://www.cazambujal.org/",
    "mediaLinks": {
      "facebook": "https://www.facebook.com/profile.php?id=100015088870118",
      "instagram": "https://www.instagram.com/cazambujal/",
      "linkedin": "https://www.linkedin.com/in/cazambujal-recreativa-020587a5/",
      "twitter": "",
      "youtube": "https://www.youtube.com/channel/UCX1B-uJu3ItT-n8bxL9vjAQ"
    },
    "address": {
      "street": "Rua das Mães D'Água",
      "number": "33",
      "complement": "",
      "city": "Amadora",
      "country": "Portugal",
      "postalCode": "2610-082",
      "latitude": "38.7369",
      "longitude": "-9.2149",
      "district": "Lisboa",
      "municipality": "Amadora",
      "parish": "Alfragide",
      "fullAddress": "Rua das Mães D'Água 33, 2610-082 Amadora, Lisboa, Portugal"
    },
    "img": "https://cesa.rc.iseg.ulisboa.pt/wp-content/uploads/2025/11/CAZAmbujal-Associacao-Recreativa.jpg"
  },
  {
    "id": 48,
    "no": 48,
    "type": "fisica",
    "nome": "SDM Mais Ação",
    "identificacao": "Sem informação",
    "categoria": "centro",
    "subCategoria": "Audiovisual; Dança;  Promoção cultural; Educação & formação;",
    "eMail": "mais.acao@akdn.org",
    "telefone": "919 303 810",
    "website": "https://www.facebook.com/SerradasMinas.MaisAcao/",
    "mediaLinks": {
      "facebook": "https://www.facebook.com/SerradasMinas.MaisAcao/",
      "instagram": "https://www.instagram.com/sdmmaisacao/?fbclid=IwAR2-mkhNoniGgApFuVGt-oKLBHqinl2H3USwVF3EvC00r-D04xfmH6hrWSU",
      "linkedin": "",
      "twitter": "",
      "youtube": ""
    },
    "address": {
      "street": "Rua Vitorino Nemésio",
      "number": "",
      "complement": "Mercado da Serra das Minas",
      "city": "Sintra",
      "country": "Portugal",
      "postalCode": "2635-444",
      "latitude": "38.7703",
      "longitude": "-9.3308",
      "district": "Lisboa",
      "municipality": "Sintra",
      "parish": "Rio de Mouro",
      "fullAddress": "Mercado da Serra das Minas, Rua Vitorino Nemésio, 2635-444 Rio de Mouro, Sintra, Lisboa, Portugal"
    },
    "img": "https://cesa.rc.iseg.ulisboa.pt/wp-content/uploads/2025/11/SDM-Mais-Acao.png.jpg"
  },
  {
    "id": 49,
    "no": 49,
    "type": "fisica",
    "nome": "KMT Associação Moreira Team",
    "identificacao": "Sem informação",
    "categoria": "associacao",
    "subCategoria": "Desporto;",
    "eMail": "associacaomoreirateam@gmail.com",
    "telefone": "965 828 610",
    "website": "https://www.between.pt/projetos/moreira-team",
    "mediaLinks": {
      "facebook": "https://www.facebook.com/AssociacaoMoreiraTeam/",
      "instagram": "https://www.instagram.com/associacao_moreira_team/",
      "linkedin": "",
      "twitter": "",
      "youtube": "Elson Moreira - YouTube / https://www.youtube.com/channel/UC2JFNzSrWbSFz7T-P4tho5w"
    },
    "address": {
      "street": "Rua Instituto Conde de Agrolongo",
      "number": "43D, Loja",
      "complement": "",
      "city": "Oeiras",
      "country": "Portugal",
      "postalCode": "2770-082",
      "latitude": "38.6975",
      "longitude": "-9.2930",
      "district": "Lisboa",
      "municipality": "Oeiras",
      "parish": "Oeiras e São Julião da Barra, Paço de Arcos e Caxias",
      "fullAddress": "Rua Instituto Conde de Agrolongo 43D, Loja, 2770-082 Paço de Arcos, Oeiras, Portugal"
    },
    "img": "https://cesa.rc.iseg.ulisboa.pt/wp-content/uploads/2025/11/KMT-Associacao-Moreira-Team.jpg"
  },
  {
    "id": 50,
    "no": 50,
    "type": "fisica",
    "nome": "Academia do Johnson",
    "identificacao": "Sem informação",
    "categoria": "associacao",
    "subCategoria": "Desporto; Educação & formação;",
    "eMail": "academiadojohnson@gmail.com",
    "telefone": "+ 351 21037370",
    "website": "https://www.academiadojohnson.com/",
    "mediaLinks": {
      "facebook": "https://www.facebook.com/academiadojohnson/",
      "instagram": "https://www.instagram.com/academiadojohnson/",
      "linkedin": "https://www.linkedin.com/company/academia-do-johnson-ipss/about/",
      "twitter": "https://twitter.com/AcademiaJohnson",
      "youtube": "https://www.youtube.com/channel/UClGUPOS_KERq9hZbZQLhUqw"
    },
    "address": {
      "street": "Rua das Mães D'Água",
      "number": "31-A",
      "complement": "Bairro do Zambujal",
      "city": "Amadora",
      "country": "Portugal",
      "postalCode": "2610-108",
      "latitude": "38.7328",
      "longitude": "-9.2145",
      "district": "Lisboa",
      "municipality": "Amadora",
      "parish": "Águas Livres",
      "fullAddress": "Rua das Mães D'Água 31-A, Bairro do Zambujal, 2610-108 Amadora, Lisboa, Portugal"
    },
    "img": "https://cesa.rc.iseg.ulisboa.pt/wp-content/uploads/2025/11/Academia-do-Johnson.jpg"
  },
  {
    "id": 51,
    "no": 51,
    "type": "fisica",
    "nome": "Associação de Moradores do PER 11",
    "identificacao": "Sem informação",
    "categoria": "associacao",
    "subCategoria": "Audiovisual; Música; Teatro; Dança; Desporto; Gastronomia; Promoção cultural; Educação & formação;",
    "eMail": "",
    "telefone": "21 805 7602",
    "website": "https://www.facebook.com/per.onze.3388/?locale=pt_PT",
    "mediaLinks": {
      "facebook": "https://www.facebook.com/per.onze.3388/?locale=pt_PT",
      "instagram": "https://www.instagram.com/associacao_de_moradores_per11/",
      "linkedin": "",
      "twitter": "",
      "youtube": ""
    },
    "address": {
      "street": "Rua Raul Rego",
      "number": "Lote 8, 2ºB",
      "complement": "",
      "city": "Lisboa",
      "country": "Portugal",
      "postalCode": "1750-424",
      "latitude": "38.7806",
      "longitude": "-9.1493",
      "district": "Lisboa",
      "municipality": "Lisboa",
      "parish": "Santa Clara",
      "fullAddress": "Rua Raul Rego, Lote 8, 2ºB, 1750-424 Lisboa, Portugal"
    },
    "img": "https://cesa.rc.iseg.ulisboa.pt/wp-content/uploads/2025/11/Associacao-de-Moradores-do-PER-11.jpg"
  },
  {
    "id": 52,
    "no": 52,
    "type": "fisica",
    "nome": "Solfraterno - Associação de Solidariedade Social de Oeiras",
    "identificacao": "Sem informação",
    "categoria": "associacao",
    "subCategoria": "Educação & formação;",
    "eMail": "solfraterno.tiaceu@gmail.com",
    "telefone": "961 777 851",
    "website": "https://www.facebook.com/solfraternooeiras/",
    "mediaLinks": {
      "facebook": "https://www.facebook.com/solfraternooeiras/",
      "instagram": "https://www.instagram.com/solfraterno/",
      "linkedin": "",
      "twitter": "https://twitter.com/SOLFRATERNO3000",
      "youtube": "https://www.youtube.com/c/SOLFRATERNO/featured"
    },
    "address": {
      "street": "Avenida Comendador Nunes Corrêa",
      "number": "Armazém 18",
      "complement": "",
      "city": "Oeiras",
      "country": "Portugal",
      "postalCode": "2790-145",
      "latitude": "38.7254",
      "longitude": "-9.2435",
      "district": "Lisboa",
      "municipality": "Oeiras",
      "parish": "Carnaxide e Queijas",
      "fullAddress": "Avenida Comendador Nunes Corrêa, Armazém 18, 2790-145 Carnaxide, Oeiras, Lisboa, Portugal"
    },
    "img": "https://cesa.rc.iseg.ulisboa.pt/wp-content/uploads/2025/11/Solfraterno-Associacao-de-Solidariedade-Social-de-Oeiras.jpg"
  },
  {
    "id": 53,
    "no": 53,
    "type": "fisica",
    "nome": "Capacitare - Consultoria e Negócios",
    "identificacao": "Sem informação",
    "categoria": "companhia",
    "subCategoria": "Educação & formação;",
    "eMail": "geral@capacitare.pt",
    "telefone": "965 667 303 / 218253507",
    "website": "https://www.capacitare.pt/",
    "mediaLinks": {
      "facebook": "https://www.facebook.com/Capacitare1/",
      "instagram": "https://www.instagram.com/capacitarecn/",
      "linkedin": "",
      "twitter": "",
      "youtube": ""
    },
    "address": {
      "street": "Rua Gonçalves Crespo",
      "number": "Lote 9C",
      "complement": "Brandoa",
      "city": "Amadora",
      "country": "Portugal",
      "postalCode": "2650-241",
      "latitude": "38.7507",
      "longitude": "-9.2268",
      "district": "Lisboa",
      "municipality": "Amadora",
      "parish": "Encosta do Sol",
      "fullAddress": "Rua Gonçalves Crespo, Lote 9C, Brandoa, 2650-241 Encosta do Sol, Amadora, Lisboa, Portugal"
    },
    "img": "https://cesa.rc.iseg.ulisboa.pt/wp-content/uploads/2025/11/Capacitare-Consultoria-e-Negocios.jpg"
  },
  {
    "id": 54,
    "no": 54,
    "type": "fisica",
    "nome": "Associação Jorge Pina",
    "identificacao": "Sem informação",
    "categoria": "associacao",
    "subCategoria": "Música; Desporto; Educação & formação;",
    "eMail": " jorgepina.associacao@gmail.com",
    "telefone": "968 831 368 / 922 236 529",
    "website": "https://www.associacaojorgepina.pt/",
    "mediaLinks": {
      "facebook": "https://www.facebook.com/associacao.jorge.pina",
      "instagram": "",
      "linkedin": "",
      "twitter": "",
      "youtube": "https://www.youtube.com/channel/UCX_n_xqHEYonU3sXIKXVQrg"
    },
    "address": {
      "street": "Rua Frederico George",
      "number": "25, 1º Dto",
      "complement": "",
      "city": "Lisboa",
      "country": "Portugal",
      "postalCode": "1600-468",
      "latitude": "38.7648",
      "longitude": "-9.1631",
      "district": "Lisboa",
      "municipality": "Lisboa",
      "parish": "Lumiar",
      "fullAddress": "Rua Frederico George 25, 1º Dto, 1600-468 Lisboa, Portugal"
    },
    "img": "https://cesa.rc.iseg.ulisboa.pt/wp-content/uploads/2025/11/Associacao-Jorge-Pina.jpg"
  },
  {
    "id": 55,
    "no": 55,
    "type": "fisica",
    "nome": "Centro Cultural de Cabo Verde",
    "identificacao": "Povos originários e descendentes",
    "categoria": "centro",
    "subCategoria": "Promoção cultural; Educação & formação;",
    "eMail": "pt.cccv@gov.cv",
    "telefone": "21 018 7393",
    "website": "https://www.facebook.com/CCCV.PT#",
    "mediaLinks": {
      "facebook": "https://www.facebook.com/CCCV.PT#",
      "instagram": "https://www.instagram.com/cccv_portugal/",
      "linkedin": "",
      "twitter": "",
      "youtube": "https://www.youtube.com/channel/UCH6Sp5TUWhvAC2Z5mpUMuLg"
    },
    "address": {
      "street": "Rua de São Bento",
      "number": "640",
      "complement": "",
      "city": "Lisboa",
      "country": "Portugal",
      "postalCode": "1250-220",
      "latitude": "38.7146",
      "longitude": "-9.1592",
      "district": "Lisboa",
      "municipality": "Lisboa",
      "parish": "Estrela",
      "fullAddress": "Rua de São Bento 640, 1250-220 Lisboa, Portugal"
    },
    "img": "https://cesa.rc.iseg.ulisboa.pt/wp-content/uploads/2025/11/Centro-Cultural-de-Cabo-Verde.jpg"
  },
  {
    "id": 56,
    "no": 56,
    "type": "fisica",
    "nome": "Associação Tira-me da Rua",
    "identificacao": "Sem informação",
    "categoria": "associacao",
    "subCategoria": "Dança; Desporto; Educação & Formação",
    "eMail": "info@tiramedarua.pt",
    "telefone": "+351 913 032 125 +351 960 469 182 +351 968 756 311",
    "website": "https://tiramedarua.pt/",
    "mediaLinks": {
      "facebook": "https://www.facebook.com/ATMRUA",
      "instagram": "https://www.instagram.com/associacaotiramedarua/",
      "linkedin": "",
      "twitter": "",
      "youtube": "https://www.youtube.com/channel/UCylgdl5hx9s8dFBd1SjmPRg"
    },
    "address": {
      "street": "Rua Marechal Craveiro Lopes",
      "number": "",
      "complement": "",
      "city": "Odivelas",
      "country": "Portugal",
      "postalCode": "2620-136",
      "latitude": "38.7938",
      "longitude": "-9.1603",
      "district": "Lisboa",
      "municipality": "Odivelas",
      "parish": "Póvoa de Santo Adrião e Olival Basto",
      "fullAddress": "Rua Marechal Craveiro Lopes, 2620-136 Póvoa de Santo Adrião, Odivelas, Lisboa, Portugal"
    },
    "img": "https://cesa.rc.iseg.ulisboa.pt/wp-content/uploads/2025/11/Associacao-Tira-me-da-Rua.jpg"
  },
  {
    "id": 57,
    "no": 57,
    "type": "fisica",
    "nome": "AMUCIP",
    "identificacao": "Etnia Cigana",
    "categoria": "musica",
    "subCategoria": "Audiovisual; Música; Teatro; Dança;Educação & formação;",
    "eMail": "",
    "telefone": 926577057,
    "website": "https://www.facebook.com/amucip.amucip/",
    "mediaLinks": {
      "facebook": "https://www.facebook.com/amucip.amucip/",
      "instagram": "",
      "linkedin": "",
      "twitter": "",
      "youtube": ""
    },
    "address": {
      "street": "Praceta Gregório Crispim Oliveira",
      "number": "2",
      "complement": "",
      "city": "Seixal",
      "country": "Portugal",
      "postalCode": "2840-358",
      "latitude": "38.6288",
      "longitude": "-9.0884",
      "district": "Setúbal",
      "municipality": "Seixal",
      "parish": "Seixal, Arrentela e Aldeia de Paio Pires",
      "fullAddress": "Praceta Gregório Crispim Oliveira 2, 2840-358 Arrentela, Seixal, Setúbal, Portugal"
    },
    "img": "https://cesa.rc.iseg.ulisboa.pt/wp-content/uploads/2025/11/AMUCIP.jpg"
  },
  {
    "id": 1,
    "no": 1,
    "type": "digital",
    "nome": "Djass - Associação de Afrodescendentes",
    "identificacao": "Povos originários e descendentes",
    "categoria": "associacao",
    "subCategoria": "Associação",
    "eMail": "associacao.djass@gmail.com",
    "telefone": "",
    "website": "http://djass.pt/",
    "mediaLinks": {
      "facebook": "https://www.facebook.com/associacao.djass",
      "instagram": "https://www.instagram.com/djass_associacao/",
      "linkedin": "",
      "twitter": "",
      "youtube": "https://www.youtube.com/channel/UCa6PNwxlQUExYh6SIyrhOTQ"
    },
    "address": {
      "street": "",
      "number": "",
      "complement": "",
      "city": "",
      "country": "Portugal",
      "postalCode": "",
      "latitude": "",
      "longitude": "",
      "district": "",
      "municipality": "",
      "parish": "",
      "fullAddress": ""
    },
    "img": "https://cesa.rc.iseg.ulisboa.pt/wp-content/uploads/2025/11/Djass-Associacao-de-Afrodescendentes.jpg"
  },
  {
    "id": 2,
    "no": 2,
    "type": "digital",
    "nome": "Nêga Filmes e Produções Artísticas",
    "identificacao": "Povos originários",
    "categoria": "coletivo",
    "subCategoria": "Coletivo cultural",
    "eMail": "negafilmesproducoes@gmail.com",
    "telefone": "917 148 235",
    "website": "",
    "mediaLinks": {
      "facebook": "https://www.facebook.com/negafilmes/?locale=pt_PT",
      "instagram": "https://www.instagram.com/nega_filmes/",
      "linkedin": "",
      "twitter": "",
      "youtube": ""
    },
    "address": {
      "street": "",
      "number": "",
      "complement": "",
      "city": "",
      "country": "Portugal",
      "postalCode": "",
      "latitude": "",
      "longitude": "",
      "district": "",
      "municipality": "",
      "parish": "",
      "fullAddress": ""
    },
    "img": "https://cesa.rc.iseg.ulisboa.pt/wp-content/uploads/2025/11/Nega-Filmes-e-Producoes-Artisticas.jpg"
  },
  {
    "id": 3,
    "no": 3,
    "type": "digital",
    "nome": "Plataforma Gueto",
    "identificacao": "Povos originários e descendentes",
    "categoria": "associacao",
    "subCategoria": "Plataforma",
    "eMail": "guetoplataforma@gmail.com",
    "telefone": "",
    "website": "https://plataformagueto.wordpress.com/",
    "mediaLinks": {
      "facebook": "https://www.facebook.com/gueto.plataforma",
      "instagram": "",
      "linkedin": "",
      "twitter": "",
      "youtube": "https://www.youtube.com/channel/UCB4BgvKUiChUZSqY4tKWL-w"
    },
    "address": {
      "street": "",
      "number": "",
      "complement": "",
      "city": "",
      "country": "Portugal",
      "postalCode": "",
      "latitude": "",
      "longitude": "",
      "district": "",
      "municipality": "",
      "parish": "",
      "fullAddress": ""
    },
    "img": "https://cesa.rc.iseg.ulisboa.pt/wp-content/uploads/2025/11/Plataforma-Gueto.jpg"
  },
  {
    "id": 4,
    "no": 4,
    "type": "digital",
    "nome": "Mulheres Negras Escurecidas",
    "identificacao": "Povos originários e descendentes",
    "categoria": "coletivo",
    "subCategoria": "Coletivo",
    "eMail": "mn.escurecidas@gmail.com",
    "telefone": "",
    "website": "",
    "mediaLinks": {
      "facebook": "https://www.facebook.com/mulheresnegrasescurecidas/",
      "instagram": "https://www.instagram.com/mn.escurecidas/",
      "linkedin": "",
      "twitter": "",
      "youtube": ""
    },
    "address": {
      "street": "",
      "number": "",
      "complement": "",
      "city": "",
      "country": "Portugal",
      "postalCode": "",
      "latitude": "",
      "longitude": "",
      "district": "",
      "municipality": "",
      "parish": "",
      "fullAddress": ""
    },
    "img": "https://cesa.rc.iseg.ulisboa.pt/wp-content/uploads/2025/11/Mulheres-Negras-Escurecidas.jpg"
  },
  {
    "id": 5,
    "no": 5,
    "type": "digital",
    "nome": "Peles Negras Máscaras Negras - Teatro do Escurecimento",
    "identificacao": "Sem informação",
    "categoria": "grupo_teatral",
    "subCategoria": "Grupo teatral",
    "eMail": "pelesnegrasmascarasnegras@gmail.com",
    "telefone": "",
    "website": "",
    "mediaLinks": {
      "facebook": "https://www.facebook.com/Peles-Negras-M%C3%A1scaras-Negras-1632172440421447",
      "instagram": "https://www.instagram.com/peles_negras_mascaras_negras/",
      "linkedin": "",
      "twitter": "",
      "youtube": "https://www.youtube.com/channel/UCCF41UUYb50HG8WMf4FqYsA"
    },
    "address": {
      "street": "",
      "number": "",
      "complement": "",
      "city": "",
      "country": "Portugal",
      "postalCode": "",
      "latitude": "",
      "longitude": "",
      "district": "",
      "municipality": "",
      "parish": "",
      "fullAddress": ""
    },
    "img": ""
  },
  {
    "id": 6,
    "no": 6,
    "type": "digital",
    "nome": "Afrolis Associação Cultural",
    "identificacao": "Descendentes",
    "categoria": "associacao",
    "subCategoria": "Associação",
    "eMail": "contato.afrolis@gmil.com",
    "telefone": "",
    "website": "https://afrolis.pt/",
    "mediaLinks": {
      "facebook": "https://www.facebook.com/radioafrolis/",
      "instagram": "https://www.instagram.com/radioafrolis/",
      "linkedin": "https://www.linkedin.com/company/radio-afrolis/about/",
      "twitter": "",
      "youtube": "https://www.youtube.com/channel/UC9Kwq4n-PbPHclEpsHOCgBg"
    },
    "address": {
      "street": "",
      "number": "",
      "complement": "",
      "city": "",
      "country": "Portugal",
      "postalCode": "",
      "latitude": "",
      "longitude": "",
      "district": "",
      "municipality": "",
      "parish": "",
      "fullAddress": ""
    },
    "img": "https://cesa.rc.iseg.ulisboa.pt/wp-content/uploads/2025/11/Afrolis-Associacao-Cultural.jpg"
  },
  {
    "id": 7,
    "no": 7,
    "type": "digital",
    "nome": "Frente Anti-Racista (FAR)",
    "identificacao": "Povos originários",
    "categoria": "frente",
    "subCategoria": "Frente",
    "eMail": "frenteantiracista.pt@gmail.com",
    "telefone": "",
    "website": "",
    "mediaLinks": {
      "facebook": "https://www.facebook.com/FARPortugal/",
      "instagram": "https://www.instagram.com/frenteantirracistaportugal/",
      "linkedin": "",
      "twitter": "https://twitter.com/antiracistapt",
      "youtube": ""
    },
    "address": {
      "street": "",
      "number": "",
      "complement": "",
      "city": "",
      "country": "Portugal",
      "postalCode": "",
      "latitude": "",
      "longitude": "",
      "district": "",
      "municipality": "",
      "parish": "",
      "fullAddress": ""
    },
    "img": "https://cesa.rc.iseg.ulisboa.pt/wp-content/uploads/2025/11/Frente-Anti-Racista-FAR.jpg"
  },
  {
    "id": 8,
    "no": 8,
    "type": "digital",
    "nome": "Associação Cultural e Educativa Voz D`África - (ACEVA)",
    "identificacao": "Povos originários",
    "categoria": "associacao",
    "subCategoria": "Associação",
    "eMail": "",
    "telefone": "",
    "website": "",
    "mediaLinks": {
      "facebook": "",
      "instagram": "",
      "linkedin": "",
      "twitter": "",
      "youtube": ""
    },
    "address": {
      "street": "",
      "number": "",
      "complement": "",
      "city": "",
      "country": "Portugal",
      "postalCode": "",
      "latitude": "",
      "longitude": "",
      "district": "",
      "municipality": "",
      "parish": "",
      "fullAddress": ""
    },
    "img": ""
  },
  {
    "id": 9,
    "no": 9,
    "type": "digital",
    "nome": "Movimento Negro em Portugal",
    "identificacao": "Sem informação",
    "categoria": "movimento",
    "subCategoria": "Movimento",
    "eMail": "mnegroportugal@gmail.com",
    "telefone": "",
    "website": "",
    "mediaLinks": {
      "facebook": "",
      "instagram": "https://www.instagram.com/mnegroportugal/",
      "linkedin": "",
      "twitter": "",
      "youtube": "https://www.youtube.com/channel/UCybHvn6sJ21lBkLX36M8NjQ"
    },
    "address": {
      "street": "",
      "number": "",
      "complement": "",
      "city": "",
      "country": "Portugal",
      "postalCode": "",
      "latitude": "",
      "longitude": "",
      "district": "",
      "municipality": "",
      "parish": "",
      "fullAddress": ""
    },
    "img": ""
  },
  {
    "id": 10,
    "no": 10,
    "type": "digital",
    "nome": "AfroPsis - Plataforma de Psicólogos Afrodescentes em Portugal",
    "identificacao": "Descendentes",
    "categoria": "uniao",
    "subCategoria": "Plataforma",
    "eMail": "luizsantana.psi@outlook.com",
    "telefone": "",
    "website": "",
    "mediaLinks": {
      "facebook": "https://www.facebook.com/AfroPsis-Sa%C3%BAde-Mental-Psic%C3%B3logos-Afrodescendentes-em-Portugal-103071012318175/",
      "instagram": "https://www.instagram.com/afropsis/",
      "linkedin": "",
      "twitter": "",
      "youtube": ""
    },
    "address": {
      "street": "",
      "number": "",
      "complement": "",
      "city": "",
      "country": "Portugal",
      "postalCode": "",
      "latitude": "",
      "longitude": "",
      "district": "",
      "municipality": "",
      "parish": "",
      "fullAddress": ""
    },
    "img": "https://cesa.rc.iseg.ulisboa.pt/wp-content/uploads/2025/11/AfroPsis-Plataforma-de-Psicologos-Afrodescentes-em-Portugal.jpg"
  },
  {
    "id": 11,
    "no": 11,
    "type": "digital",
    "nome": "SaMaNe (Saúde das Mães Negras)",
    "identificacao": "Povos originários e descendentes",
    "categoria": "coletivo",
    "subCategoria": "Coletivo",
    "eMail": "ola.samane@gmail.com / carolina.v.s.coimbra@gmail.com",
    "telefone": "",
    "website": "",
    "mediaLinks": {
      "facebook": "https://www.facebook.com/SaMaNePortugal/?ref=page_internal",
      "instagram": "https://www.instagram.com/samane_portugal/",
      "linkedin": "",
      "twitter": "",
      "youtube": "https://www.youtube.com/channel/UCymu1GQoEbLlM1Cou8pVv9A/featured"
    },
    "address": {
      "street": "",
      "number": "",
      "complement": "",
      "city": "",
      "country": "Portugal",
      "postalCode": "",
      "latitude": "",
      "longitude": "",
      "district": "",
      "municipality": "",
      "parish": "",
      "fullAddress": ""
    },
    "img": "https://cesa.rc.iseg.ulisboa.pt/wp-content/uploads/2025/11/SaMaNe-Saude-das-Maes-Negras.jpg"
  },
  {
    "id": 12,
    "no": 12,
    "type": "digital",
    "nome": "Rizoma",
    "identificacao": "Etnia Cigana",
    "categoria": "associacao",
    "subCategoria": "Associação",
    "eMail": "geral.rizomassociacao@gmail.com",
    "telefone": "",
    "website": "https://www.rizomassociacao.org/?fbclid=IwY2xjawMtnFFleHRuA2FlbQIxMABicmlkETFXcVpUWHVieXpoSXg2cXBaAR5wr6Yxx8akXIp5eF7kQJYbA_GyKF7qEO7abVLOW4a57tFID-jkZS9TIw2g1Q_aem_9XihmejrhKn_CpSxYKpngQ",
    "mediaLinks": {
      "facebook": "https://www.facebook.com/rizomassociacao",
      "instagram": "https://www.instagram.com/Rizomassociacao",
      "linkedin": "",
      "twitter": "",
      "youtube": ""
    },
    "address": {
      "street": "",
      "number": "",
      "complement": "",
      "city": "",
      "country": "Portugal",
      "postalCode": "",
      "latitude": "",
      "longitude": "",
      "district": "",
      "municipality": "",
      "parish": "",
      "fullAddress": ""
    },
    "img": "https://cesa.rc.iseg.ulisboa.pt/wp-content/uploads/2025/11/Rizoma.jpg"
  },
  {
    "id": 13,
    "no": 13,
    "type": "digital",
    "nome": "Aurora Negra",
    "identificacao": "",
    "categoria": "associacao",
    "subCategoria": "",
    "eMail": "",
    "telefone": "",
    "website": "https://www.tndm.pt/pt/calendario/aurora-negra/",
    "mediaLinks": {
      "facebook": "",
      "instagram": "",
      "linkedin": "",
      "twitter": "",
      "youtube": ""
    },
    "address": {
      "street": "",
      "number": "",
      "complement": "",
      "city": "",
      "country": "Portugal",
      "postalCode": "",
      "latitude": "",
      "longitude": "",
      "district": "",
      "municipality": "",
      "parish": "",
      "fullAddress": ""
    },
    "img": "https://cesa.rc.iseg.ulisboa.pt/wp-content/uploads/2025/11/Aurora-Negra.jpg"
  },
  {
    "id": 14,
    "no": 14,
    "type": "digital",
    "nome": "Teatro Griot",
    "identificacao": "",
    "categoria": "grupo_teatral",
    "subCategoria": "",
    "eMail": "",
    "telefone": "",
    "website": "",
    "mediaLinks": {
      "facebook": "",
      "instagram": "",
      "linkedin": "",
      "twitter": "",
      "youtube": ""
    },
    "address": {
      "street": "",
      "number": "",
      "complement": "",
      "city": "",
      "country": "Portugal",
      "postalCode": "",
      "latitude": "",
      "longitude": "",
      "district": "",
      "municipality": "",
      "parish": "",
      "fullAddress": ""
    },
    "img": ""
  },
  {
    "id": 15,
    "no": 15,
    "type": "digital",
    "nome": "Teatro Ibisco",
    "identificacao": "",
    "categoria": "grupo_teatral",
    "subCategoria": "",
    "eMail": "",
    "telefone": "",
    "website": "https://www.tndm.pt/pt/calendario/aurora-negra/",
    "mediaLinks": {
      "facebook": "https://www.facebook.com/p/Teatro-Ibisco-100064446172518/?locale=pt_PT",
      "instagram": "https://www.instagram.com/teatroibisco",
      "linkedin": "",
      "twitter": "",
      "youtube": ""
    },
    "address": {
      "street": "",
      "number": "",
      "complement": "",
      "city": "",
      "country": "Portugal",
      "postalCode": "",
      "latitude": "",
      "longitude": "",
      "district": "",
      "municipality": "",
      "parish": "",
      "fullAddress": ""
    },
    "img": "https://cesa.rc.iseg.ulisboa.pt/wp-content/uploads/2025/11/Teatro-Ibisco.png.jpg"
  },
  {
    "id": 16,
    "no": 16,
    "type": "digital",
    "nome": "Artepólon Associação",
    "identificacao": "",
    "categoria": "associacao",
    "subCategoria": "",
    "eMail": "",
    "telefone": "",
    "website": "",
    "mediaLinks": {
      "facebook": "",
      "instagram": "https://www.instagram.com/artepolon/",
      "linkedin": "",
      "twitter": "",
      "youtube": ""
    },
    "address": {
      "street": "",
      "number": "",
      "complement": "",
      "city": "",
      "country": "Portugal",
      "postalCode": "",
      "latitude": "",
      "longitude": "",
      "district": "",
      "municipality": "",
      "parish": "",
      "fullAddress": ""
    },
    "img": "https://cesa.rc.iseg.ulisboa.pt/wp-content/uploads/2025/11/Artepolon-Associacao.jpg"
  },
  {
    "id": 17,
    "no": 17,
    "type": "digital",
    "nome": "Kubata",
    "identificacao": "",
    "categoria": "associacao",
    "subCategoria": "",
    "eMail": "",
    "telefone": "",
    "website": "",
    "mediaLinks": {
      "facebook": "",
      "instagram": "https://www.instagram.com/kubata.casa/",
      "linkedin": "",
      "twitter": "",
      "youtube": ""
    },
    "address": {
      "street": "",
      "number": "",
      "complement": "",
      "city": "",
      "country": "Portugal",
      "postalCode": "",
      "latitude": "",
      "longitude": "",
      "district": "",
      "municipality": "",
      "parish": "",
      "fullAddress": ""
    },
    "img": "https://cesa.rc.iseg.ulisboa.pt/wp-content/uploads/2025/11/Kubata.jpg"
  },
  {
    "id": 18,
    "no": 18,
    "type": "digital",
    "nome": "Ballet para Todos",
    "identificacao": "",
    "categoria": "associacao",
    "subCategoria": "",
    "eMail": "",
    "telefone": "",
    "website": "",
    "mediaLinks": {
      "facebook": "",
      "instagram": "https://www.instagram.com/balletparatodos.pt/",
      "linkedin": "",
      "twitter": "",
      "youtube": ""
    },
    "address": {
      "street": "",
      "number": "",
      "complement": "",
      "city": "",
      "country": "Portugal",
      "postalCode": "",
      "latitude": "",
      "longitude": "",
      "district": "",
      "municipality": "",
      "parish": "",
      "fullAddress": ""
    },
    "img": "https://cesa.rc.iseg.ulisboa.pt/wp-content/uploads/2025/11/Ballet-para-Todos.jpg"
  },
  {
    "id": 19,
    "no": 19,
    "type": "digital",
    "nome": "Tributo aos Ancestrais Africanos PT",
    "identificacao": "",
    "categoria": "associacao",
    "subCategoria": "",
    "eMail": "",
    "telefone": "",
    "website": "",
    "mediaLinks": {
      "facebook": "https://www.facebook.com/tributoaosancestraispt/?locale=pt_BR",
      "instagram": "",
      "linkedin": "",
      "twitter": "",
      "youtube": ""
    },
    "address": {
      "street": "",
      "number": "",
      "complement": "",
      "city": "",
      "country": "Portugal",
      "postalCode": "",
      "latitude": "",
      "longitude": "",
      "district": "",
      "municipality": "",
      "parish": "",
      "fullAddress": ""
    },
    "img": "https://cesa.rc.iseg.ulisboa.pt/wp-content/uploads/2025/11/Tributo-aos-Ancestrais-Africanos-PT.png.jpg"
  },
  {
    "id": 20,
    "no": 20,
    "type": "digital",
    "nome": "A Fonte",
    "identificacao": "",
    "categoria": "associacao",
    "subCategoria": "",
    "eMail": "",
    "telefone": "",
    "website": "",
    "mediaLinks": {
      "facebook": "",
      "instagram": "https://www.instagram.com/fonte.doc/",
      "linkedin": "",
      "twitter": "",
      "youtube": ""
    },
    "address": {
      "street": "",
      "number": "",
      "complement": "",
      "city": "",
      "country": "Portugal",
      "postalCode": "",
      "latitude": "",
      "longitude": "",
      "district": "",
      "municipality": "",
      "parish": "",
      "fullAddress": ""
    },
    "img": "https://cesa.rc.iseg.ulisboa.pt/wp-content/uploads/2025/11/A-Fonte.jpg"
  },
  {
    "id": 21,
    "no": 21,
    "type": "digital",
    "nome": "Noz Stória",
    "identificacao": "",
    "categoria": "associacao",
    "subCategoria": "",
    "eMail": "",
    "telefone": "",
    "website": "",
    "mediaLinks": {
      "facebook": "",
      "instagram": "https://www.instagram.com/nozstoria/",
      "linkedin": "",
      "twitter": "",
      "youtube": ""
    },
    "address": {
      "street": "",
      "number": "",
      "complement": "",
      "city": "",
      "country": "Portugal",
      "postalCode": "",
      "latitude": "",
      "longitude": "",
      "district": "",
      "municipality": "",
      "parish": "",
      "fullAddress": ""
    },
    "img": ""
  },
  {
    "id": 22,
    "no": 22,
    "type": "digital",
    "nome": "Quem me Lera",
    "identificacao": "",
    "categoria": "associacao",
    "subCategoria": "",
    "eMail": "",
    "telefone": "",
    "website": "",
    "mediaLinks": {
      "facebook": "",
      "instagram": "https://www.instagram.com/oficinaqml/",
      "linkedin": "",
      "twitter": "",
      "youtube": ""
    },
    "address": {
      "street": "",
      "number": "",
      "complement": "",
      "city": "",
      "country": "Portugal",
      "postalCode": "",
      "latitude": "",
      "longitude": "",
      "district": "",
      "municipality": "",
      "parish": "",
      "fullAddress": ""
    },
    "img": "https://cesa.rc.iseg.ulisboa.pt/wp-content/uploads/2025/11/Quem-me-Lera.jpg"
  },
  {
    "id": 23,
    "no": 23,
    "type": "digital",
    "nome": "Bantumen",
    "identificacao": "",
    "categoria": "associacao",
    "subCategoria": "",
    "eMail": "",
    "telefone": "",
    "website": "https://www.bantumen.com/",
    "mediaLinks": {
      "facebook": "",
      "instagram": "",
      "linkedin": "",
      "twitter": "",
      "youtube": ""
    },
    "address": {
      "street": "",
      "number": "",
      "complement": "",
      "city": "",
      "country": "Portugal",
      "postalCode": "",
      "latitude": "",
      "longitude": "",
      "district": "",
      "municipality": "",
      "parish": "",
      "fullAddress": ""
    },
    "img": "https://cesa.rc.iseg.ulisboa.pt/wp-content/uploads/2025/11/Bantumen.jpg"
  },
  {
    "id": 24,
    "no": 24,
    "type": "digital",
    "nome": "O Lado Negro da Força",
    "identificacao": "",
    "categoria": "associacao",
    "subCategoria": "",
    "eMail": "",
    "telefone": "",
    "website": "",
    "mediaLinks": {
      "facebook": "",
      "instagram": "https://www.instagram.com/ladonegrodaforca_pt",
      "linkedin": "",
      "twitter": "",
      "youtube": ""
    },
    "address": {
      "street": "",
      "number": "",
      "complement": "",
      "city": "",
      "country": "Portugal",
      "postalCode": "",
      "latitude": "",
      "longitude": "",
      "district": "",
      "municipality": "",
      "parish": "",
      "fullAddress": ""
    },
    "img": "https://cesa.rc.iseg.ulisboa.pt/wp-content/uploads/2025/11/O-Lado-Negro-da-Forca.jpg"
  },
  {
    "id": 25,
    "no": 25,
    "type": "digital",
    "nome": "Chá de Beleza Afro",
    "identificacao": "",
    "categoria": "uniao",
    "subCategoria": "",
    "eMail": "",
    "telefone": "",
    "website": "",
    "mediaLinks": {
      "facebook": "https://www.facebook.com/chadebelezaafro/?locale=pt_PT",
      "instagram": "",
      "linkedin": "",
      "twitter": "",
      "youtube": ""
    },
    "address": {
      "street": "",
      "number": "",
      "complement": "",
      "city": "",
      "country": "Portugal",
      "postalCode": "",
      "latitude": "",
      "longitude": "",
      "district": "",
      "municipality": "",
      "parish": "",
      "fullAddress": ""
    },
    "img": "https://cesa.rc.iseg.ulisboa.pt/wp-content/uploads/2025/11/Cha-de-Beleza-Afro.jpg"
  },
  {
    "id": 26,
    "no": 26,
    "type": "digital",
    "nome": "Festas Fidju-Fema",
    "identificacao": "",
    "categoria": "associacao",
    "subCategoria": "",
    "eMail": "",
    "telefone": "",
    "website": "",
    "mediaLinks": {
      "facebook": "https://www.facebook.com/FidjuFema/",
      "instagram": "",
      "linkedin": "",
      "twitter": "",
      "youtube": ""
    },
    "address": {
      "street": "",
      "number": "",
      "complement": "",
      "city": "",
      "country": "Portugal",
      "postalCode": "",
      "latitude": "",
      "longitude": "",
      "district": "",
      "municipality": "",
      "parish": "",
      "fullAddress": ""
    },
    "img": "https://cesa.rc.iseg.ulisboa.pt/wp-content/uploads/2025/11/Festas-Fidju-Fema.jpg"
  },
  {
    "id": 27,
    "no": 27,
    "type": "digital",
    "nome": "Quotidiano de uma Negra",
    "identificacao": "",
    "categoria": "uniao",
    "subCategoria": "",
    "eMail": "",
    "telefone": "",
    "website": "",
    "mediaLinks": {
      "facebook": "",
      "instagram": "https://www.instagram.com/quotidianodeumanegra",
      "linkedin": "",
      "twitter": "",
      "youtube": ""
    },
    "address": {
      "street": "",
      "number": "",
      "complement": "",
      "city": "",
      "country": "Portugal",
      "postalCode": "",
      "latitude": "",
      "longitude": "",
      "district": "",
      "municipality": "",
      "parish": "",
      "fullAddress": ""
    },
    "img": "https://cesa.rc.iseg.ulisboa.pt/wp-content/uploads/2025/11/Quotidiano-de-uma-Negra.jpg"
  },
  {
    "id": 28,
    "no": 28,
    "type": "digital",
    "nome": "Página Voto Negro",
    "identificacao": "",
    "categoria": "associacao",
    "subCategoria": "",
    "eMail": "",
    "telefone": "",
    "website": "",
    "mediaLinks": {
      "facebook": "https://www.facebook.com/votonegro2022",
      "instagram": "https://www.instagram.com/votonegro2022",
      "linkedin": "",
      "twitter": "",
      "youtube": ""
    },
    "address": {
      "street": "",
      "number": "",
      "complement": "",
      "city": "",
      "country": "Portugal",
      "postalCode": "",
      "latitude": "",
      "longitude": "",
      "district": "",
      "municipality": "",
      "parish": "",
      "fullAddress": ""
    },
    "img": "https://cesa.rc.iseg.ulisboa.pt/wp-content/uploads/2025/11/Pagina-Voto-Negro.jpg"
  },
  {
    "id": 29,
    "no": 29,
    "type": "digital",
    "nome": "O Tal Podcast",
    "identificacao": "",
    "categoria": "associacao",
    "subCategoria": "",
    "eMail": "",
    "telefone": "",
    "website": "https://otalpodcast.substack.com",
    "mediaLinks": {
      "facebook": "",
      "instagram": "",
      "linkedin": "",
      "twitter": "",
      "youtube": ""
    },
    "address": {
      "street": "",
      "number": "",
      "complement": "",
      "city": "",
      "country": "Portugal",
      "postalCode": "",
      "latitude": "",
      "longitude": "",
      "district": "",
      "municipality": "",
      "parish": "",
      "fullAddress": ""
    },
    "img": "https://cesa.rc.iseg.ulisboa.pt/wp-content/uploads/2025/11/O-Tal-Podcast.jpg"
  },
  {
    "id": 30,
    "no": 30,
    "type": "digital",
    "nome": "O Mercado Lusófono",
    "identificacao": "",
    "categoria": "associacao",
    "subCategoria": "",
    "eMail": "",
    "telefone": "",
    "website": "https://www.mercadolusofono.com",
    "mediaLinks": {
      "facebook": "",
      "instagram": "",
      "linkedin": "",
      "twitter": "",
      "youtube": ""
    },
    "address": {
      "street": "",
      "number": "",
      "complement": "",
      "city": "",
      "country": "Portugal",
      "postalCode": "",
      "latitude": "",
      "longitude": "",
      "district": "",
      "municipality": "",
      "parish": "",
      "fullAddress": ""
    },
    "img": "https://cesa.rc.iseg.ulisboa.pt/wp-content/uploads/2025/11/O-Mercado-Lusofono.jpg"
  },
  {
    "id": 31,
    "no": 31,
    "type": "digital",
    "nome": "Uma Africana",
    "identificacao": "",
    "categoria": "associacao",
    "subCategoria": "",
    "eMail": "",
    "telefone": "",
    "website": "",
    "mediaLinks": {
      "facebook": "",
      "instagram": "https://www.instagram.com/umafricana",
      "linkedin": "",
      "twitter": "",
      "youtube": ""
    },
    "address": {
      "street": "",
      "number": "",
      "complement": "",
      "city": "",
      "country": "Portugal",
      "postalCode": "",
      "latitude": "",
      "longitude": "",
      "district": "",
      "municipality": "",
      "parish": "",
      "fullAddress": ""
    },
    "img": "https://cesa.rc.iseg.ulisboa.pt/wp-content/uploads/2025/11/Uma-Africana.jpg.jpg"
  }
]